sec_of_week,gps_week_number,utc,position_type,numsv,ins_status,temperature,latitude,longitude,altitude,north_velocity,east_velocity,ground_velocity,roll,pitch,heading,x_angular_velocity,y_angular_velocity,z_angular_velocity,x_acc,y_acc,z_acc,latitude_std,longitude_std,altitude_std,north_velocity_std,east_velocity_std,ground_velocity_std,roll_std,pitch_std,heading_std,atb_0,atb_1,atb_2,q_x,q_y,q_z,q_w,fl_wheel_vel,fr_wheel_vel,rl_wheel_vel,rr_wheel_vel,l_wheel_factor,r_wheel_factor,time_stamp,seq,time_valid,timestamp_sab_vehicle,x_angular_velocity_bias,y_angular_velocity_bias,z_angular_velocity_bias,x_acc_bias,y_acc_bias,z_acc_bias,gps_velocity,wheel_speed,dv
284322030,2272,1690354704.03,5,48,1,0.00,29.506103515625000,106.440178222656243,303.236,-15.180,0.867,0.106,2.022,-1.613,273.080,-0.048996371259055,1.113917501685415,0.083993779301233,0.512,0.941,11.617,50,50,50,132,212,147,0.100,0.100,0.100,-0.000029,0.008435,0.003327,-0.013589,0.018022,0.999377,0.027123,15.265625,15.250000,15.265625,15.359375,1.0053,1.0053,3810.03,357021,1,0,0,0,0,0,0,0,15.204739,15.285156,0.080417
284322040,2272,1690354704.04,5,48,1,0.00,29.506102973090279,106.440178222656243,303.241,-15.180,0.867,0.106,1.976,-1.547,273.084,-4.671654010659127,6.633508712909381,0.172987188322779,0.021,0.427,9.480,50,50,50,132,212,147,0.100,0.100,0.100,-0.000029,0.008435,0.003327,-0.013022,0.017599,0.999391,0.027143,15.250000,15.281250,15.250000,15.296875,1.0053,1.0053,3810.04,357022,1,0,0,0,0,0,0,0,15.204739,15.269531,0.064792
284322050,2272,1690354704.05,5,48,1,0.00,29.506102701822918,106.440178493923611,303.242,-15.180,0.867,0.106,1.973,-1.542,273.088,-0.208984522309025,0.515961787136152,0.375972154967428,0.491,0.249,7.348,50,50,50,132,212,147,0.100,0.100,0.100,-0.000029,0.008435,0.003327,-0.012977,0.017580,0.999391,0.027176,15.250000,15.281250,15.250000,15.296875,1.0053,1.0053,3810.05,357023,1,0,0,0,0,0,0,0,15.204739,15.269531,0.064792
284322060,2272,1690354704.06,5,48,1,0.00,29.506098361545138,106.440178493923611,303.246,-15.180,0.867,0.106,1.975,-1.575,273.090,0.142989410000909,-3.366750653657808,0.339974820981185,0.795,0.498,10.406,50,50,50,132,212,147,0.100,0.100,0.100,-0.000029,0.008435,0.003327,-0.013272,0.017600,0.999386,0.027200,15.218750,15.296875,15.218750,15.296875,1.0053,1.0053,3810.06,357024,1,0,0,0,0,0,0,0,15.204739,15.257812,0.053073
284322070,2272,1690354704.07,5,44,1,0.00,29.506098090277778,106.440178493923611,303.250,-15.180,0.867,0.106,1.948,-1.575,273.092,-2.726798049457928,0.082993853357171,0.186986151539651,0.793,-0.138,9.673,50,50,50,132,212,147,0.100,0.100,0.100,-0.000029,0.008435,0.003327,-0.013272,0.017362,0.999390,0.027213,15.218750,15.296875,15.218750,15.296875,1.0053,1.0053,3810.07,357025,1,0,0,0,0,0,0,0,15.204739,15.257812,0.053073
284322080,2272,1690354704.08,5,44,1,0.00,29.506097547743057,106.440178765190979,303.255,-15.180,0.867,0.106,1.984,-1.583,273.094,3.655729251491814,-0.777942384480481,0.140989558112785,0.628,0.185,10.387,50,50,50,132,212,147,0.100,0.100,0.100,-0.000029,0.008435,0.003327,-0.013332,0.017683,0.999383,0.027229,15.218750,15.296875,15.218750,15.296875,1.0053,1.0053,3810.08,357026,1,0,0,0,0,0,0,0,15.204739,15.257812,0.053073
284322090,2272,1690354704.09,5,44,1,0.00,29.506093207465277,106.440178765190979,303.259,-15.180,0.867,0.106,1.985,-1.557,273.093,0.066995038252174,2.505814415820155,-0.088993409021547,0.552,0.357,10.174,50,50,50,132,212,147,0.100,0.100,0.100,-0.000029,0.008435,0.003327,-0.013113,0.017684,0.999386,0.027225,15.296875,15.250000,15.296875,15.406250,1.0053,1.0053,3810.09,357027,1,0,0,0,0,0,0,0,15.204739,15.312500,0.107761
284322100,2272,1690354704.10,5,44,1,0.00,29.506092936197916,106.440178765190979,303.263,-15.180,0.867,0.106,1.985,-1.515,273.098,-0.017998666993123,4.204688594782024,0.273979708673072,0.428,0.145,8.458,50,50,50,132,212,147,0.100,0.100,0.100,-0.000029,0.008435,0.003327,-0.012743,0.017672,0.999391,0.027255,15.296875,15.250000,15.296875,15.406250,1.0053,1.0053,3810.10,357028,1,0,0,0,0,0,0,0,15.204739,15.312500,0.107761
284322110,2272,1690354704.11,5,44,1,0.00,29.506093207465277,106.440178765190979,303.267,-15.180,0.867,0.106,1.996,-1.517,273.100,1.148914909727596,-0.159988151049971,0.201985040700586,0.297,0.195,9.095,50,50,50,132,212,147,0.100,0.100,0.100,-0.000029,0.008435,0.003327,-0.012755,0.017773,0.999388,0.027273,15.265625,15.250000,15.265625,15.343750,1.0053,1.0053,3810.11,357029,1,0,0,0,0,0,0,0,15.204739,15.281250,0.076511
284322120,2272,1690354704.12,5,44,1,0.00,29.506092936197916,106.440183105468748,303.271,-15.180,0.867,0.106,1.994,-1.518,273.103,-0.170987336434657,-0.103992298182482,0.370972525247117,0.649,0.235,9.459,50,50,50,132,212,147,0.100,0.100,0.100,-0.000029,0.008435,0.003327,-0.012764,0.017758,0.999387,0.027305,15.265625,15.250000,15.265625,15.343750,1.0053,1.0053,3810.12,357030,1,0,0,0,0,0,0,0,15.204739,15.281250,0.076511
284322130,2272,1690354704.13,5,44,1,0.00,29.506087510850694,106.440183105468748,303.275,-15.180,0.867,0.106,2.014,-1.537,273.106,1.992852406516188,-1.943856035257137,0.353973784198057,0.642,0.330,9.956,50,50,50,132,212,147,0.100,0.100,0.100,-0.000029,0.008435,0.003327,-0.012929,0.017936,0.999381,0.027335,15.265625,15.250000,15.265625,15.343750,1.0053,1.0053,3810.13,357031,1,0,0,0,0,0,0,0,15.204739,15.281250,0.076511
284322140,2272,1690354704.14,5,44,1,0.00,29.506088324652779,106.440183105468748,303.279,-15.180,0.867,0.106,2.021,-1.531,273.108,0.695948457067368,0.652951641472689,0.139989632168722,0.729,0.536,9.618,50,50,50,132,212,147,0.100,0.100,0.100,-0.000029,0.008435,0.003327,-0.012871,0.017996,0.999381,0.027349,15.265625,15.281250,15.265625,15.406250,1.0053,1.0053,3810.14,357032,1,0,0,0,0,0,0,0,15.204739,15.304688,0.099948
284322150,2272,1690354704.15,5,44,1,0.00,29.506087782118055,106.440183376736115,303.285,-15.180,0.867,0.106,2.026,-1.527,273.107,0.491963564478657,0.367972747414930,-0.047996445314992,0.385,1.132,9.511,50,50,50,132,212,147,0.100,0.100,0.100,-0.000029,0.008435,0.003327,-0.012835,0.018038,0.999380,0.027346,15.265625,15.281250,15.265625,15.406250,1.0053,1.0053,3810.15,357033,1,0,0,0,0,0,0,0,15.204739,15.304688,0.099948
284322160,2272,1690354704.16,5,44,1,0.00,29.506087510850694,106.440183376736115,303.289,-15.180,0.867,0.106,2.021,-1.519,273.107,-0.518961564968342,0.760943643431419,-0.037997185874369,0.655,0.648,9.107,50,50,50,132,212,147,0.100,0.100,0.100,-0.000029,0.008435,0.003327,-0.012769,0.017990,0.999382,0.027343,15.265625,15.281250,15.265625,15.406250,1.0053,1.0053,3810.16,357034,1,0,0,0,0,0,0,0,15.204739,15.304688,0.099948
284322170,2272,1690354704.17,5,44,1,0.00,29.506082899305557,106.440183376736115,303.293,-15.447,0.920,-0.687,2.022,-1.508,273.106,0.117991261399352,1.116917279517602,-0.141989484056850,0.113,-0.034,9.181,50,50,50,142,274,172,0.100,0.100,0.100,-0.000029,0.008435,0.003327,-0.012671,0.017998,0.999383,0.027333,15.281250,15.296875,15.281250,15.296875,1.0053,1.0053,3810.17,357035,1,0,0,0,0,0,0,0,15.474373,15.289062,0.185310
284322180,2272,1690354704.18,5,44,1,0.00,29.506082899305557,106.440183648003469,303.297,-15.447,0.920,-0.687,2.041,-1.522,273.104,1.922857590431826,-1.424894470288797,-0.171987262378719,0.709,0.341,9.396,50,50,50,142,274,172,0.100,0.100,0.100,-0.000029,0.008435,0.003327,-0.012790,0.018170,0.999379,0.027317,15.281250,15.296875,15.281250,15.296875,1.0053,1.0053,3810.18,357036,1,0,0,0,0,0,0,0,15.474373,15.289062,0.185310
284322190,2272,1690354704.19,5,44,1,0.00,29.506083441840278,106.440183648003469,303.301,-15.447,0.920,-0.687,2.042,-1.522,273.103,0.010999185384684,0.006999481608435,-0.043996741538743,0.709,1.070,9.965,50,50,50,142,274,172,0.100,0.100,0.100,-0.000029,0.008435,0.003327,-0.012790,0.018171,0.999379,0.027313,15.281250,15.296875,15.281250,15.296875,1.0053,1.0053,3810.19,357037,1,0,0,0,0,0,0,0,15.474373,15.289062,0.185310
284322200,2272,1690354704.20,5,44,1,0.00,29.506077745225696,106.440183648003469,303.305,-15.447,0.920,-0.687,2.018,-1.506,273.105,-2.354825598266748,1.648877881758752,0.107992001958728,0.493,0.011,8.301,50,50,50,142,274,172,0.100,0.100,0.100,-0.000029,0.008435,0.003327,-0.012652,0.017962,0.999385,0.027323,15.281250,15.328125,15.281250,15.453125,1.0053,1.0053,3810.20,357038,1,0,0,0,0,0,0,0,15.474373,15.335938,0.138435
284322210,2272,1690354704.21,5,44,1,0.00,29.506077473958332,106.440183919270837,303.309,-15.447,0.920,-0.687,2.016,-1.524,273.107,-0.183986373707467,-1.891859886165897,0.214984077973396,0.263,0.701,9.164,50,50,50,142,274,172,0.100,0.100,0.100,-0.000029,0.008435,0.003327,-0.012814,0.017951,0.999383,0.027338,15.281250,15.328125,15.281250,15.453125,1.0053,1.0053,3810.21,357039,1,0,0,0,0,0,0,0,15.474373,15.335938,0.138435
284322220,2272,1690354704.22,5,44,1,0.00,29.506078016493056,106.440183919270837,303.313,-15.447,0.920,-0.687,1.996,-1.526,273.104,-2.017850555117748,-0.161988002938096,-0.238982300630894,0.858,0.399,9.478,50,50,50,142,274,172,0.100,0.100,0.100,-0.000029,0.008435,0.003327,-0.012833,0.017776,0.999386,0.027315,15.312500,15.281250,15.312500,15.406250,1.0053,1.0053,3810.22,357040,1,0,0,0,0,0,0,0,15.474373,15.328125,0.146248
284322230,2272,1690354704.23,5,44,1,0.00,29.506077745225696,106.440183919270837,303.316,-15.447,0.920,-0.687,2.006,-1.512,273.101,1.011925055391059,1.341900616931622,-0.386971340352116,0.425,0.413,8.377,50,50,50,142,274,172,0.100,0.100,0.100,-0.000029,0.008435,0.003327,-0.012709,0.017862,0.999387,0.027284,15.312500,15.281250,15.312500,15.406250,1.0053,1.0053,3810.23,357041,1,0,0,0,0,0,0,0,15.474373,15.328125,0.146248
284322240,2272,1690354704.24,5,44,1,0.00,29.506073404947916,106.440183105468748,303.320,-15.447,0.920,-0.687,2.024,-1.549,273.097,1.685875141689058,-3.745722586457425,-0.294978153498384,0.696,0.782,8.538,50,50,50,142,274,172,0.100,0.100,0.100,-0.000029,0.008435,0.003327,-0.013032,0.018018,0.999381,0.027254,15.312500,15.281250,15.312500,15.406250,1.0053,1.0053,3810.24,357042,1,0,0,0,0,0,0,0,15.474373,15.328125,0.146248
284322250,2272,1690354704.25,5,44,1,0.00,29.506073133680555,106.440183105468748,303.326,-15.447,0.920,-0.687,2.012,-1.585,273.094,-1.196911355042590,-3.621731769393698,-0.147989039721224,0.622,0.290,9.776,50,50,50,142,274,172,0.100,0.100,0.100,-0.000029,0.008435,0.003327,-0.013350,0.017923,0.999379,0.027234,15.343750,15.328125,15.343750,15.406250,1.0053,1.0053,3810.25,357043,1,0,0,0,0,0,0,0,15.474373,15.355469,0.118904
284322260,2272,1690354704.26,5,44,1,0.00,29.506073404947916,106.440183105468748,303.330,-15.447,0.920,-0.687,2.017,-1.617,273.091,0.467965341821161,-3.246759540370331,-0.119991113287479,0.879,-0.197,10.047,50,50,50,142,274,172,0.100,0.100,0.100,-0.000029,0.008435,0.003327,-0.013627,0.017977,0.999375,0.027219,15.343750,15.328125,15.343750,15.406250,1.0053,1.0053,3810.26,357044,1,0,0,0,0,0,0,0,15.474373,15.355469,0.118904
284322270,2272,1690354704.27,5,44,1,0.00,29.506067979600694,106.440183376736115,303.334,-15.503,0.862,-0.837,2.025,-1.609,273.090,0.780942162312665,0.773942680704229,-0.192985707204028,0.495,0.143,9.963,50,50,50,138,270,169,0.100,0.100,0.100,-0.000029,0.008435,0.003327,-0.013557,0.018044,0.999375,0.027204,15.343750,15.281250,15.343750,15.421875,1.0053,1.0053,3810.27,357045,1,0,0,0,0,0,0,0,15.526946,15.347656,0.179290
284322280,2272,1690354704.28,5,44,1,0.00,29.506067708333333,106.440183376736115,303.338,-15.503,0.862,-0.837,2.031,-1.589,273.088,0.641952456088003,2.050848111271802,-0.200985114756526,0.534,0.124,7.985,50,50,50,138,270,169,0.100,0.100,0.100,-0.000029,0.008435,0.003327,-0.013376,0.018096,0.999377,0.027190,15.343750,15.281250,15.343750,15.421875,1.0053,1.0053,3810.28,357046,1,0,0,0,0,0,0,0,15.526946,15.347656,0.179290
284322290,2272,1690354704.29,5,44,1,0.00,29.506068250868054,106.440183376736115,303.342,-15.503,0.862,-0.837,2.026,-1.601,273.087,-0.543959713569900,-1.214910022035711,-0.112991631679043,0.398,0.460,8.564,50,50,50,138,270,169,0.100,0.100,0.100,-0.000029,0.008435,0.003327,-0.013483,0.018052,0.999376,0.027178,15.343750,15.281250,15.343750,15.421875,1.0053,1.0053,3810.29,357047,1,0,0,0,0,0,0,0,15.526946,15.347656,0.179290
284322300,2272,1690354704.30,5,44,1,0.00,29.506067979600694,106.440183648003469,303.345,-15.503,0.862,-0.837,2.023,-1.632,273.087,-0.334975191260876,-3.122768723306604,0.161988002938093,1.000,1.028,9.058,50,50,50,138,270,169,0.100,0.100,0.100,-0.000029,0.008435,0.003327,-0.013757,0.018030,0.999373,0.027186,15.296875,15.328125,15.296875,15.515625,1.0053,1.0053,3810.30,357048,1,0,0,0,0,0,0,0,15.526946,15.359375,0.167571
284322310,2272,1690354704.31,5,44,1,0.00,29.506062554253472,106.440183648003469,303.349,-15.503,0.862,-0.837,2.004,-1.663,273.086,-1.910858479103081,-3.140767390299726,-0.064995186364052,0.671,0.032,9.925,50,50,50,138,270,169,0.100,0.100,0.100,-0.000029,0.008435,0.003327,-0.014031,0.017872,0.999372,0.027174,15.296875,15.328125,15.296875,15.515625,1.0053,1.0053,3810.31,357049,1,0,0,0,0,0,0,0,15.526946,15.359375,0.167571
284322320,2272,1690354704.32,5,44,1,0.00,29.506063368055557,106.440183648003469,303.352,-15.503,0.862,-0.837,2.004,-1.685,273.085,0.008999333496559,-2.167839446727096,0.009999259440622,0.422,0.226,9.095,50,50,50,138,270,169,0.100,0.100,0.100,-0.000029,0.008435,0.003327,-0.014220,0.017878,0.999369,0.027171,15.359375,15.421875,15.359375,15.437500,1.0053,1.0053,3810.32,357050,1,0,0,0,0,0,0,0,15.526946,15.394531,0.132415
284322330,2272,1690354704.33,5,44,1,0.00,29.506062825520832,106.440183648003469,303.356,-15.503,0.862,-0.837,2.014,-1.717,273.081,1.001925795950436,-3.283756800300637,-0.229982967134333,0.949,0.248,9.904,50,50,50,138,270,169,0.100,0.100,0.100,-0.000029,0.008435,0.003327,-0.014502,0.017974,0.999364,0.027147,15.359375,15.421875,15.359375,15.437500,1.0053,1.0053,3810.33,357051,1,0,0,0,0,0,0,0,15.526946,15.394531,0.132415
284322340,2272,1690354704.34,5,44,1,0.00,29.506062554253472,106.440183105468748,303.360,-15.503,0.862,-0.837,2.016,-1.732,273.079,0.194985559092150,-1.483890100988474,-0.190985855315903,0.695,0.022,10.562,50,50,50,138,270,169,0.100,0.100,0.100,-0.000029,0.008435,0.003327,-0.014631,0.017995,0.999362,0.027128,15.359375,15.421875,15.359375,15.437500,1.0053,1.0053,3810.34,357052,1,0,0,0,0,0,0,0,15.526946,15.394531,0.132415
284322350,2272,1690354704.35,5,44,1,0.00,29.506057942708335,106.440183105468748,303.366,-15.503,0.862,-0.837,2.026,-1.724,273.079,0.971928017628567,0.773942680704229,-0.051996149091242,0.628,0.389,8.305,50,50,50,138,270,169,0.100,0.100,0.100,-0.000029,0.008435,0.003327,-0.014561,0.018079,0.999362,0.027126,15.375000,15.296875,15.375000,15.453125,1.0053,1.0053,3810.35,357053,1,0,0,0,0,0,0,0,15.526946,15.375000,0.151946
284322360,2272,1690354704.36,5,44,1,0.00,29.506057671440971,106.440183105468748,303.370,-15.503,0.862,-0.837,2.021,-1.776,273.077,-0.514961861192093,-5.211614020452775,0.015998815104996,0.520,0.962,10.954,50,50,50,138,270,169,0.100,0.100,0.100,-0.000029,0.008435,0.003327,-0.015015,0.018050,0.999356,0.027118,15.375000,15.296875,15.375000,15.453125,1.0053,1.0053,3810.36,357054,1,0,0,0,0,0,0,0,15.526946,15.375000,0.151946
284322370,2272,1690354704.37,5,44,1,0.00,29.506058213975695,106.440183376736115,303.373,-15.487,0.791,-0.665,1.968,-1.758,273.079,-5.381601430943369,1.835864033298405,0.113991557623102,1.057,0.195,9.795,50,50,50,140,288,172,0.100,0.100,0.100,-0.000029,0.008435,0.003327,-0.014867,0.017577,0.999367,0.027124,15.343750,15.343750,15.343750,15.468750,1.0053,1.0053,3810.37,357055,1,0,0,0,0,0,0,0,15.507187,15.375000,0.132187
284322380,2272,1690354704.38,5,44,1,0.00,29.506052788628473,106.440183376736115,303.377,-15.487,0.791,-0.665,1.981,-1.791,273.080,1.392896840078800,-3.318754208342817,0.236982448742767,0.639,0.202,9.161,50,50,50,140,288,172,0.100,0.100,0.100,-0.000029,0.008435,0.003327,-0.015152,0.017706,0.999360,0.027141,15.343750,15.343750,15.343750,15.468750,1.0053,1.0053,3810.38,357056,1,0,0,0,0,0,0,0,15.507187,15.375000,0.132187
284322390,2272,1690354704.39,5,44,1,0.00,29.506052517361113,106.440183648003469,303.381,-15.487,0.791,-0.665,1.959,-1.799,273.078,-2.273831596797701,-0.837937941124219,-0.171987262378719,0.899,0.661,10.540,50,50,50,140,288,172,0.100,0.100,0.100,-0.000029,0.008435,0.003327,-0.015230,0.017510,0.999362,0.027122,15.343750,15.343750,15.343750,15.468750,1.0053,1.0053,3810.39,357057,1,0,0,0,0,0,0,0,15.507187,15.375000,0.132187
284322400,2272,1690354704.40,5,44,1,0.00,29.506053059895834,106.440183648003469,303.385,-15.487,0.791,-0.665,1.950,-1.825,273.076,-0.889934090215460,-2.569809676240145,-0.061995408531865,0.647,0.098,10.887,50,50,50,140,288,172,0.100,0.100,0.100,-0.000029,0.008435,0.003327,-0.015456,0.017439,0.999360,0.027111,15.390625,15.375000,15.390625,15.390625,1.0053,1.0053,3810.40,357058,1,0,0,0,0,0,0,0,15.507187,15.386719,0.120468
284322410,2272,1690354704.41,5,44,1,0.00,29.506052517361113,106.440183648003469,303.389,-15.487,0.791,-0.665,1.967,-1.842,273.076,1.713873068122803,-1.685875141689061,0.013998963216871,0.598,0.729,11.112,50,50,50,140,288,172,0.100,0.100,0.100,-0.000029,0.008435,0.003327,-0.015600,0.017594,0.999355,0.027112,15.390625,15.375000,15.390625,15.390625,1.0053,1.0053,3810.41,357059,1,0,0,0,0,0,0,0,15.507187,15.386719,0.120468
284322420,2272,1690354704.42,5,44,1,0.00,29.506048177083333,106.440183648003469,303.393,-15.487,0.791,-0.665,1.938,-1.824,273.076,-2.905784793445083,1.800866625256224,-0.067994964196239,0.938,0.266,10.641,50,50,50,140,288,172,0.100,0.100,0.100,-0.000029,0.008435,0.003327,-0.015450,0.017337,0.999362,0.027105,15.390625,15.359375,15.390625,15.421875,1.0053,1.0053,3810.42,357060,1,0,0,0,0,0,0,0,15.507187,15.390625,0.116562
284322430,2272,1690354704.43,5,44,1,0.00,29.506047905815972,106.440183919270837,303.397,-15.487,0.791,-0.665,1.909,-1.818,273.077,-2.924783386382266,0.594955936717075,0.116991335455289,0.457,-0.057,9.747,50,50,50,140,288,172,0.100,0.100,0.100,-0.000029,0.008435,0.003327,-0.015407,0.017080,0.999367,0.027112,15.390625,15.359375,15.390625,15.421875,1.0053,1.0053,3810.43,357061,1,0,0,0,0,0,0,0,15.507187,15.390625,0.116562
284322440,2272,1690354704.44,5,44,1,0.00,29.506048448350693,106.440183919270837,303.401,-15.487,0.791,-0.665,1.894,-1.806,273.082,-1.513887879310343,1.244907800357578,0.404970007345235,1.227,0.482,9.790,50,50,50,140,288,172,0.100,0.100,0.100,-0.000029,0.008435,0.003327,-0.015303,0.016945,0.999370,0.027147,15.390625,15.359375,15.390625,15.421875,1.0053,1.0053,3810.44,357062,1,0,0,0,0,0,0,0,15.507187,15.390625,0.116562
284322450,2272,1690354704.45,5,44,1,0.00,29.506043023003471,106.440183919270837,303.405,-15.487,0.791,-0.665,1.869,-1.795,273.085,-2.518813453092967,1.144915205951347,0.319976302099939,0.504,0.149,9.642,50,50,50,140,288,172,0.100,0.100,0.100,-0.000029,0.008435,0.003327,-0.015209,0.016723,0.999375,0.027173,15.359375,15.437500,15.359375,15.500000,1.0053,1.0053,3810.45,357063,1,0,0,0,0,0,0,0,15.507187,15.414062,0.093125
284322460,2272,1690354704.46,5,44,1,0.00,29.506042751736111,106.440183105468748,303.409,-15.487,0.791,-0.665,1.856,-1.800,273.087,-1.343900468819750,-0.551959121122398,0.190985855315900,0.506,0.228,9.566,50,50,50,140,288,172,0.100,0.100,0.100,-0.000029,0.008435,0.003327,-0.015263,0.016616,0.999375,0.027186,15.359375,15.437500,15.359375,15.500000,1.0053,1.0053,3810.46,357064,1,0,0,0,0,0,0,0,15.507187,15.414062,0.093125
284322470,2272,1690354704.47,5,44,1,0.00,29.506043023003471,106.440183105468748,303.414,-15.430,0.758,-0.425,1.869,-1.830,273.087,1.321902098050376,-2.916783978829768,0.155988447273719,0.977,1.431,11.199,50,50,50,139,295,173,0.100,0.100,0.100,-0.000029,0.008435,0.003327,-0.015514,0.016739,0.999369,0.027197,15.359375,15.437500,15.359375,15.500000,1.0053,1.0053,3810.47,357065,1,0,0,0,0,0,0,0,15.448607,15.414062,0.034545
284322480,2272,1690354704.48,5,44,1,0.00,29.506042751736111,106.440183105468748,303.418,-15.430,0.758,-0.425,1.849,-1.828,273.086,-2.021850258893998,0.145989187833096,-0.190985855315903,1.160,0.372,11.132,50,50,50,139,295,173,0.100,0.100,0.100,-0.000029,0.008435,0.003327,-0.015506,0.016562,0.999373,0.027177,15.437500,15.406250,15.437500,15.468750,1.0053,1.0053,3810.48,357066,1,0,0,0,0,0,0,0,15.448607,15.437500,0.011107
284322490,2272,1690354704.49,5,44,1,0.00,29.506038411458334,106.440183376736115,303.422,-15.430,0.758,-0.425,1.835,-1.805,273.086,-1.424894470288797,2.312828708616128,-0.061995408531865,0.674,0.025,9.469,50,50,50,139,295,173,0.100,0.100,0.100,-0.000029,0.008435,0.003327,-0.015306,0.016433,0.999378,0.027173,15.437500,15.406250,15.437500,15.468750,1.0053,1.0053,3810.49,357067,1,0,0,0,0,0,0,0,15.448607,15.437500,0.011107
284322500,2272,1690354704.50,5,44,1,0.00,29.506038140190974,106.440183376736115,303.427,-15.430,0.758,-0.425,1.826,-1.802,273.085,-0.889934090215460,0.296978005386506,-0.023998222657497,0.080,0.295,10.446,50,50,50,139,295,173,0.100,0.100,0.100,-0.000029,0.008435,0.003327,-0.015283,0.016355,0.999380,0.027170,15.390625,15.421875,15.390625,15.453125,1.0053,1.0053,3810.50,357068,1,0,0,0,0,0,0,0,15.448607,15.414062,0.034545
284322510,2272,1690354704.51,5,44,1,0.00,29.506037597656249,106.440183376736115,303.431,-15.430,0.758,-0.425,1.805,-1.788,273.088,-2.076846185817425,1.394896691966925,0.176986892099028,1.041,-0.089,12.474,50,50,50,139,295,173,0.100,0.100,0.100,-0.000029,0.008435,0.003327,-0.015167,0.016172,0.999384,0.027186,15.390625,15.421875,15.390625,15.453125,1.0053,1.0053,3810.51,357069,1,0,0,0,0,0,0,0,15.448607,15.414062,0.034545
284322520,2272,1690354704.52,5,44,1,0.00,29.506033257378473,106.440183648003469,303.436,-15.430,0.758,-0.425,1.808,-1.714,273.095,0.262980523288387,7.422450282774546,0.526960972520837,0.866,0.802,7.403,50,50,50,139,295,173,0.100,0.100,0.100,-0.000029,0.008435,0.003327,-0.014519,0.016177,0.999392,0.027242,15.390625,15.421875,15.390625,15.453125,1.0053,1.0053,3810.52,357070,1,0,0,0,0,0,0,0,15.448607,15.414062,0.034545
284322530,2272,1690354704.53,5,44,1,0.00,29.506032714843752,106.440183648003469,303.440,-15.430,0.758,-0.425,1.813,-1.750,273.100,0.477964601261784,-3.609732658064950,0.533960454129274,0.672,-0.304,9.109,50,50,50,139,295,173,0.100,0.100,0.100,-0.000029,0.008435,0.003327,-0.014834,0.016227,0.999385,0.027284,15.406250,15.421875,15.406250,15.546875,1.0053,1.0053,3810.53,357071,1,0,0,0,0,0,0,0,15.448607,15.445312,0.003295
284322540,2272,1690354704.54,5,44,1,0.00,29.506033257378473,106.440183648003469,303.445,-15.430,0.758,-0.425,1.763,-1.732,273.099,-4.933634608003453,1.807866106864660,-0.065995112308114,0.515,1.099,11.632,50,50,50,139,295,173,0.100,0.100,0.100,-0.000029,0.008435,0.003327,-0.014687,0.015792,0.999395,0.027274,15.406250,15.421875,15.406250,15.546875,1.0053,1.0053,3810.54,357072,1,0,0,0,0,0,0,0,15.448607,15.445312,0.003295
284322550,2272,1690354704.55,5,44,1,0.00,29.506032986111112,106.440183648003469,303.448,-15.430,0.758,-0.425,1.777,-1.718,273.100,1.373898247141616,1.374898173085679,-0.004999629720313,1.008,-0.013,10.274,50,50,50,139,295,173,0.100,0.100,0.100,-0.000029,0.008435,0.003327,-0.014563,0.015909,0.999395,0.027277,15.437500,15.390625,15.437500,15.515625,1.0053,1.0053,3810.55,357073,1,0,0,0,0,0,0,0,15.448607,15.445312,0.003295
284322560,2272,1690354704.56,5,44,1,0.00,29.506027560763890,106.440183919270837,303.453,-15.430,0.758,-0.425,1.801,-1.692,273.098,2.391822858197051,2.640804418268567,-0.219983707693710,0.429,0.680,9.381,50,50,50,139,295,173,0.100,0.100,0.100,-0.000029,0.008435,0.003327,-0.014325,0.016115,0.999395,0.027265,15.437500,15.390625,15.437500,15.515625,1.0053,1.0053,3810.56,357074,1,0,0,0,0,0,0,0,15.448607,15.445312,0.003295
284322570,2272,1690354704.57,5,44,1,0.00,29.506028374565972,106.440183919270837,303.457,-15.453,0.782,-0.166,1.778,-1.680,273.099,-2.349825968546436,1.151914687559783,0.046996519370927,0.679,0.458,8.116,50,50,50,136,309,180,0.100,0.100,0.100,-0.000029,0.008435,0.003327,-0.014231,0.015907,0.999400,0.027268,15.406250,15.421875,15.406250,15.468750,1.0053,1.0053,3810.57,357075,1,0,0,0,0,0,0,0,15.472774,15.425781,0.046993
284322580,2272,1690354704.58,5,44,1,0.00,29.506027832031251,106.440183105468748,303.462,-15.453,0.782,-0.166,1.765,-1.714,273.101,-1.248907504133830,-3.335752949391876,0.318976376155876,0.774,0.157,10.887,50,50,50,136,309,180,0.100,0.100,0.100,-0.000029,0.008435,0.003327,-0.014526,0.015806,0.999397,0.027289,15.406250,15.421875,15.406250,15.468750,1.0053,1.0053,3810.58,357076,1,0,0,0,0,0,0,0,15.472774,15.425781,0.046993
284322590,2272,1690354704.59,5,44,1,0.00,29.506023220486110,106.440183105468748,303.466,-15.453,0.782,-0.166,1.755,-1.704,273.105,-1.020924388887623,0.937930535530448,0.323976005876188,0.637,0.537,10.891,50,50,50,136,309,180,0.100,0.100,0.100,-0.000029,0.008435,0.003327,-0.014447,0.015715,0.999398,0.027317,15.406250,15.421875,15.406250,15.468750,1.0053,1.0053,3810.59,357077,1,0,0,0,0,0,0,0,15.472774,15.425781,0.046993
284322600,2272,1690354704.60,5,44,1,0.00,29.506022949218750,106.440183105468748,303.471,-15.453,0.782,-0.166,1.739,-1.675,273.106,-1.655877363367191,2.929783016102575,-0.004999629720313,0.676,0.087,8.981,50,50,50,136,309,180,0.100,0.100,0.100,-0.000029,0.008435,0.003327,-0.014195,0.015564,0.999404,0.027319,15.437500,15.468750,15.437500,15.609375,1.0053,1.0053,3810.60,357078,1,0,0,0,0,0,0,0,15.472774,15.488281,0.015507
284322610,2272,1690354704.61,5,44,1,0.00,29.506022677951389,106.440183376736115,303.475,-15.453,0.782,-0.166,1.733,-1.653,273.106,-0.591956158884891,2.225835151482707,-0.085993631189360,0.746,0.671,9.275,50,50,50,136,309,180,0.100,0.100,0.100,-0.000029,0.008435,0.003327,-0.014001,0.015508,0.999408,0.027314,15.437500,15.468750,15.437500,15.609375,1.0053,1.0053,3810.61,357079,1,0,0,0,0,0,0,0,15.472774,15.488281,0.015507
284322620,2272,1690354704.62,5,44,1,0.00,29.506023220486110,106.440183376736115,303.479,-15.453,0.782,-0.166,1.724,-1.654,273.104,-0.918931942593267,-0.115991409511230,-0.168987484546532,1.000,0.576,9.204,50,50,50,136,309,180,0.100,0.100,0.100,-0.000029,0.008435,0.003327,-0.014013,0.015429,0.999409,0.027298,15.468750,15.468750,15.468750,15.562500,1.0053,1.0053,3810.62,357080,1,0,0,0,0,0,0,0,15.472774,15.492188,0.019414
284322630,2272,1690354704.63,5,44,1,0.00,29.506017523871527,106.440183376736115,303.484,-15.453,0.782,-0.166,1.733,-1.664,273.101,0.920931794481389,-1.031923574272308,-0.233982670910583,0.628,0.194,10.136,50,50,50,136,309,180,0.100,0.100,0.100,-0.000029,0.008435,0.003327,-0.014098,0.015512,0.999408,0.027277,15.468750,15.468750,15.468750,15.562500,1.0053,1.0053,3810.63,357081,1,0,0,0,0,0,0,0,15.472774,15.492188,0.019414
284322640,2272,1690354704.64,5,44,1,0.00,29.506018337673613,106.440183376736115,303.488,-15.453,0.782,-0.166,1.750,-1.665,273.099,1.665876622807812,-0.100992520350295,-0.217983855805586,0.108,-0.026,8.595,50,50,50,136,309,180,0.100,0.100,0.100,-0.000029,0.008435,0.003327,-0.014103,0.015658,0.999406,0.027260,15.468750,15.468750,15.468750,15.562500,1.0053,1.0053,3810.64,357082,1,0,0,0,0,0,0,0,15.472774,15.492188,0.019414
284322650,2272,1690354704.65,5,44,1,0.00,29.506017795138888,106.440183648003469,303.490,-15.453,0.782,-0.166,1.772,-1.700,273.098,2.175838854279591,-3.511739915546844,-0.027997926433746,1.251,-0.153,10.122,50,50,50,136,309,180,0.100,0.100,0.100,-0.000029,0.008435,0.003327,-0.014404,0.015857,0.999399,0.027255,15.468750,15.406250,15.468750,15.578125,1.0053,1.0053,3810.65,357083,1,0,0,0,0,0,0,0,15.472774,15.480469,0.007695
284322660,2272,1690354704.66,5,44,1,0.00,29.506017523871527,106.440183648003469,303.494,-15.453,0.782,-0.166,1.789,-1.680,273.096,1.718872697843114,1.917857960711515,-0.201985040700589,0.650,0.454,9.942,50,50,50,136,309,180,0.100,0.100,0.100,-0.000029,0.008435,0.003327,-0.014230,0.016008,0.999399,0.027241,15.468750,15.406250,15.468750,15.578125,1.0053,1.0053,3810.66,357084,1,0,0,0,0,0,0,0,15.472774,15.480469,0.007695
284322670,2272,1690354704.67,5,44,1,0.00,29.506013183593751,106.440183648003469,303.498,-15.538,0.863,-0.147,1.804,-1.672,273.095,1.427894248120981,0.848937126508902,-0.129990372728102,1.057,-0.260,7.335,50,50,50,137,249,156,0.100,0.100,0.100,-0.000029,0.008435,0.003327,-0.014153,0.016131,0.999398,0.027232,15.515625,15.468750,15.515625,15.593750,1.0053,1.0053,3810.67,357085,1,0,0,0,0,0,0,0,15.561948,15.523438,0.038510
284322680,2272,1690354704.68,5,44,1,0.00,29.506012641059026,106.440187988281252,303.501,-15.538,0.863,-0.147,1.831,-1.726,273.094,2.726798049457926,-5.483593877237725,0.048996371259052,0.826,0.738,10.814,50,50,50,137,249,156,0.100,0.100,0.100,-0.000029,0.008435,0.003327,-0.014623,0.016382,0.999387,0.027232,15.515625,15.468750,15.515625,15.593750,1.0053,1.0053,3810.68,357086,1,0,0,0,0,0,0,0,15.561948,15.523438,0.038510
284322690,2272,1690354704.69,5,44,1,0.00,29.506013183593751,106.440187988281252,303.505,-15.538,0.863,-0.147,1.809,-1.729,273.093,-2.233834559035208,-0.280979190281511,-0.046996519370930,0.975,0.761,9.871,50,50,50,137,249,156,0.100,0.100,0.100,-0.000029,0.008435,0.003327,-0.014652,0.016188,0.999390,0.027225,15.515625,15.468750,15.515625,15.593750,1.0053,1.0053,3810.69,357087,1,0,0,0,0,0,0,0,15.561948,15.523438,0.038510
284322700,2272,1690354704.70,5,44,1,0.00,29.506007758246529,106.440188259548606,303.509,-15.538,0.863,-0.147,1.812,-1.742,273.091,0.327975709652437,-1.293904171616634,-0.148988965665286,0.664,-0.045,8.584,50,50,50,137,249,156,0.100,0.100,0.100,-0.000029,0.008435,0.003327,-0.014764,0.016220,0.999388,0.027210,15.437500,15.515625,15.437500,15.562500,1.0053,1.0053,3810.70,357088,1,0,0,0,0,0,0,0,15.561948,15.488281,0.073666
284322710,2272,1690354704.71,5,44,1,0.00,29.506007486979168,106.440188259548606,303.513,-15.538,0.863,-0.147,1.823,-1.759,273.092,1.076920241755110,-1.725872179451553,0.135989928392473,0.711,0.548,9.003,50,50,50,137,249,156,0.100,0.100,0.100,-0.000029,0.008435,0.003327,-0.014910,0.016319,0.999384,0.027221,15.437500,15.515625,15.437500,15.562500,1.0053,1.0053,3810.71,357089,1,0,0,0,0,0,0,0,15.561948,15.488281,0.073666
284322720,2272,1690354704.72,5,44,1,0.00,29.506008029513890,106.440188259548606,303.517,-15.538,0.863,-0.147,1.811,-1.781,273.091,-1.226909133364459,-2.238834188755519,-0.053996000979366,0.947,0.002,10.304,50,50,50,137,249,156,0.100,0.100,0.100,-0.000029,0.008435,0.003327,-0.015108,0.016218,0.999383,0.027212,15.437500,15.515625,15.437500,15.562500,1.0053,1.0053,3810.72,357090,1,0,0,0,0,0,0,0,15.561948,15.488281,0.073666
284322730,2272,1690354704.73,5,44,1,0.00,29.506007486979168,106.440188259548606,303.521,-15.538,0.863,-0.147,1.815,-1.805,273.090,0.383971562519927,-2.398822339805490,0.045996593426865,0.865,-0.137,9.999,50,50,50,137,249,156,0.100,0.100,0.100,-0.000029,0.008435,0.003327,-0.015316,0.016257,0.999380,0.027213,15.546875,15.531250,15.546875,15.625000,1.0053,1.0053,3810.73,357091,1,0,0,0,0,0,0,0,15.561948,15.562500,0.000552
284322740,2272,1690354704.74,5,44,1,0.00,29.506003146701389,106.440188530815973,303.524,-15.538,0.863,-0.147,1.839,-1.820,273.091,2.444818933232353,-1.426894322176922,0.124990743007788,0.869,0.776,10.082,50,50,50,137,249,156,0.100,0.100,0.100,-0.000029,0.008435,0.003327,-0.015435,0.016474,0.999374,0.027225,15.546875,15.531250,15.546875,15.625000,1.0053,1.0053,3810.74,357092,1,0,0,0,0,0,0,0,15.561948,15.562500,0.000552
284322750,2272,1690354704.75,5,44,1,0.00,29.506002604166667,106.440188530815973,303.526,-15.538,0.863,-0.147,1.818,-1.846,273.090,-2.139841520293351,-2.644804122044819,-0.069994816084363,0.877,0.513,10.025,50,50,50,137,249,156,0.100,0.100,0.100,-0.000029,0.008435,0.003327,-0.015670,0.016294,0.999374,0.027212,15.609375,15.593750,15.609375,15.625000,1.0053,1.0053,3810.75,357093,1,0,0,0,0,0,0,0,15.561948,15.609375,0.047427
284322760,2272,1690354704.76,5,44,1,0.00,29.506003417968749,106.440188530815973,303.530,-15.538,0.863,-0.147,1.799,-1.874,273.089,-1.912858330991206,-2.835789977360720,0.073994519860610,0.627,0.515,9.359,50,50,50,137,249,156,0.100,0.100,0.100,-0.000029,0.008435,0.003327,-0.015921,0.016137,0.999372,0.027211,15.609375,15.593750,15.609375,15.625000,1.0053,1.0053,3810.76,357094,1,0,0,0,0,0,0,0,15.561948,15.609375,0.047427
284322770,2272,1690354704.77,5,44,1,0.00,29.505997992621527,106.440188802083327,303.534,-15.604,0.926,-0.354,1.798,-1.914,273.090,-0.103992298182482,-3.933708663941140,0.158988225105906,0.995,0.512,9.948,50,50,50,147,318,188,0.100,0.100,0.100,-0.000029,0.008435,0.003327,-0.016265,0.016137,0.999366,0.027219,15.609375,15.593750,15.609375,15.625000,1.0053,1.0053,3810.77,357095,1,0,0,0,0,0,0,0,15.631452,15.609375,0.022077
284322780,2272,1690354704.78,5,44,1,0.00,29.505997721354166,106.440188802083327,303.538,-15.604,0.926,-0.354,1.773,-1.953,273.088,-2.560810342743585,-3.950707404990200,-0.029997778321871,0.885,0.217,10.531,50,50,50,147,318,188,0.100,0.100,0.100,-0.000029,0.008435,0.003327,-0.016615,0.015924,0.999364,0.027207,15.515625,15.578125,15.515625,15.625000,1.0053,1.0053,3810.78,357096,1,0,0,0,0,0,0,0,15.631452,15.558594,0.072858
284322790,2272,1690354704.79,5,44,1,0.00,29.505997992621527,106.440187988281252,303.541,-15.604,0.926,-0.354,1.770,-1.974,273.088,-0.272979782729013,-2.112843519803668,0.078994149580921,1.409,-0.089,9.603,50,50,50,147,318,188,0.100,0.100,0.100,-0.000029,0.008435,0.003327,-0.016799,0.015905,0.999362,0.027210,15.515625,15.578125,15.515625,15.625000,1.0053,1.0053,3810.79,357097,1,0,0,0,0,0,0,0,15.631452,15.558594,0.072858
284322800,2272,1690354704.80,5,44,1,0.00,29.505997721354166,106.440187988281252,303.545,-15.604,0.926,-0.354,1.779,-1.990,273.088,0.943930091194822,-1.587882399170954,-0.009999259440625,1.027,-0.051,10.104,50,50,50,147,318,188,0.100,0.100,0.100,-0.000029,0.008435,0.003328,-0.016935,0.015992,0.999358,0.027209,15.515625,15.578125,15.515625,15.625000,1.0053,1.0053,3810.80,357098,1,0,0,0,0,0,0,0,15.631452,15.558594,0.072858
284322810,2272,1690354704.81,5,44,1,0.00,29.505993381076390,106.440187988281252,303.549,-15.604,0.926,-0.354,1.775,-1.999,273.089,-0.485964008814285,-0.945929943082949,0.116991335455289,0.657,-0.126,9.208,50,50,50,147,318,188,0.100,0.100,0.100,-0.000029,0.008435,0.003328,-0.017017,0.015952,0.999357,0.027217,15.625000,15.578125,15.625000,15.703125,1.0053,1.0053,3810.81,357099,1,0,0,0,0,0,0,0,15.631452,15.632812,0.001360
284322820,2272,1690354704.82,5,44,1,0.00,29.505992838541665,106.440187988281252,303.553,-15.604,0.926,-0.354,1.792,-2.065,273.092,1.757869809661545,-6.574513082209708,0.562958306507081,1.036,-0.007,11.659,50,50,50,147,318,188,0.100,0.100,0.100,-0.000029,0.008435,0.003328,-0.017584,0.016120,0.999343,0.027260,15.625000,15.578125,15.625000,15.703125,1.0053,1.0053,3810.82,357100,1,0,0,0,0,0,0,0,15.631452,15.632812,0.001360
284322830,2272,1690354704.83,5,44,1,0.00,29.505992567274305,106.440188259548606,303.557,-15.604,0.926,-0.354,1.778,-2.100,273.096,-1.360899209868809,-3.471742877784351,0.514961861192090,1.306,0.491,12.426,50,50,50,147,318,188,0.100,0.100,0.100,-0.000029,0.008435,0.003328,-0.017891,0.016010,0.999339,0.027297,15.593750,15.593750,15.593750,15.750000,1.0053,1.0053,3810.83,357101,1,0,0,0,0,0,0,0,15.631452,15.632812,0.001360
284322840,2272,1690354704.84,5,44,1,0.00,29.505987955729168,106.440188259548606,303.562,-15.604,0.926,-0.354,1.775,-2.095,273.101,-0.339974820981188,0.482964230982096,0.488963786646470,0.891,-0.119,9.760,50,50,50,147,318,188,0.100,0.100,0.100,-0.000029,0.008435,0.003328,-0.017849,0.015978,0.999339,0.027340,15.593750,15.593750,15.593750,15.750000,1.0053,1.0053,3810.84,357102,1,0,0,0,0,0,0,0,15.631452,15.632812,0.001360
284322850,2272,1690354704.85,5,44,1,0.00,29.505987684461804,106.440188259548606,303.567,-15.604,0.926,-0.354,1.793,-2.109,273.107,1.808866032808722,-1.382897580638180,0.652951641472689,0.900,1.023,9.421,50,50,50,147,318,188,0.100,0.100,0.100,-0.000029,0.008435,0.003328,-0.017967,0.016139,0.999332,0.027398,15.593750,15.593750,15.593750,15.750000,1.0053,1.0053,3810.85,357103,1,0,0,0,0,0,0,0,15.631452,15.632812,0.001360
284322860,2272,1690354704.86,5,44,1,0.00,29.505988226996529,106.440188530815973,303.571,-15.604,0.926,-0.354,1.764,-2.134,273.107,-2.915784052885706,-2.481816193162662,0.071994667972485,1.196,0.345,11.740,50,50,50,147,318,188,0.100,0.100,0.100,-0.000029,0.008435,0.003328,-0.018190,0.015890,0.999332,0.027395,15.578125,15.593750,15.578125,15.687500,1.0053,1.0053,3810.86,357104,1,0,0,0,0,0,0,0,15.631452,15.609375,0.022077
284322870,2272,1690354704.87,5,44,1,0.00,29.505987684461804,106.440188530815973,303.576,-15.634,0.929,-0.476,1.783,-2.114,273.110,1.939856331480885,1.983853073019627,0.206984670420897,1.376,0.230,9.287,50,50,50,141,304,182,0.100,0.100,0.100,-0.000029,0.008435,0.003328,-0.018012,0.016055,0.999332,0.027419,15.578125,15.593750,15.578125,15.687500,1.0053,1.0053,3810.87,357105,1,0,0,0,0,0,0,0,15.661577,15.609375,0.052202
284322880,2272,1690354704.88,5,44,1,0.00,29.505983344184028,106.440188530815973,303.580,-15.634,0.929,-0.476,1.812,-2.142,273.111,2.928783090158513,-2.753796049947611,0.149988891609346,0.976,1.048,10.437,50,50,50,141,304,182,0.100,0.100,0.100,-0.000029,0.008435,0.003328,-0.018246,0.016317,0.999323,0.027432,15.609375,15.640625,15.609375,15.671875,1.0053,1.0053,3810.88,357106,1,0,0,0,0,0,0,0,15.661577,15.632812,0.028765
284322890,2272,1690354704.89,5,44,1,0.00,29.505982801649306,106.440188530815973,303.585,-15.634,0.929,-0.476,1.776,-2.146,273.112,-3.647729843939318,-0.416969118673986,0.154988521329657,1.449,0.072,10.892,50,50,50,141,304,182,0.100,0.100,0.100,-0.000029,0.008435,0.003328,-0.018289,0.016000,0.999328,0.027439,15.609375,15.640625,15.609375,15.671875,1.0053,1.0053,3810.89,357107,1,0,0,0,0,0,0,0,15.661577,15.632812,0.028765
284322900,2272,1690354704.90,5,44,1,0.00,29.505982530381946,106.440188802083327,303.590,-15.634,0.929,-0.476,1.782,-2.143,273.117,0.627953492871131,0.321976153988063,0.449966674828039,0.740,0.160,10.351,50,50,50,141,304,182,0.100,0.100,0.100,-0.000029,0.008435,0.003328,-0.018260,0.016053,0.999326,0.027480,15.593750,15.640625,15.593750,15.765625,1.0053,1.0053,3810.90,357108,1,0,0,0,0,0,0,0,15.661577,15.648438,0.013140
284322910,2272,1690354704.91,5,44,1,0.00,29.505977918836805,106.440188802083327,303.595,-15.634,0.929,-0.476,1.785,-2.142,273.120,0.352973858253995,0.013998963216871,0.334975191260873,0.830,0.506,12.384,50,50,50,141,304,182,0.100,0.100,0.100,-0.000029,0.008435,0.003328,-0.018254,0.016084,0.999325,0.027510,15.593750,15.640625,15.593750,15.765625,1.0053,1.0053,3810.91,357109,1,0,0,0,0,0,0,0,15.661577,15.648438,0.013140
284322920,2272,1690354704.92,5,44,1,0.00,29.505977647569445,106.440188259548606,303.600,-15.634,0.929,-0.476,1.783,-2.104,273.126,-0.228983041190271,3.771720661003043,0.521961342800526,1.291,0.482,10.483,50,50,50,141,304,182,0.100,0.100,0.100,-0.000029,0.008435,0.003328,-0.017926,0.016055,0.999330,0.027560,15.593750,15.640625,15.593750,15.765625,1.0053,1.0053,3810.92,357110,1,0,0,0,0,0,0,0,15.661577,15.648438,0.013140
284322930,2272,1690354704.93,5,44,1,0.00,29.505978190104166,106.440188259548606,303.605,-15.634,0.929,-0.476,1.789,-2.099,273.130,0.568957862171455,0.520961416856464,0.332975339372749,1.155,0.518,10.445,50,50,50,141,304,182,0.100,0.100,0.100,-0.000029,0.008435,0.003328,-0.017880,0.016103,0.999329,0.027590,15.625000,15.609375,15.625000,15.750000,1.0053,1.0053,3810.93,357111,1,0,0,0,0,0,0,0,15.661577,15.652344,0.009233
284322940,2272,1690354704.94,5,44,1,0.00,29.505977918836805,106.440188259548606,303.610,-15.634,0.929,-0.476,1.774,-2.077,273.133,-1.465891433995352,2.302829449175505,0.295978079442443,1.291,0.773,10.719,50,50,50,141,304,182,0.100,0.100,0.100,-0.000029,0.008435,0.003328,-0.017686,0.015969,0.999334,0.027617,15.625000,15.609375,15.625000,15.750000,1.0053,1.0053,3810.94,357112,1,0,0,0,0,0,0,0,15.661577,15.652344,0.009233
284322950,2272,1690354704.95,5,44,1,0.00,29.505973307291665,106.440188530815973,303.617,-15.634,0.929,-0.476,1.779,-2.059,273.136,0.482964230982096,1.740871068612485,0.183986373707464,0.906,0.385,10.164,50,50,50,141,304,182,0.100,0.100,0.100,-0.000029,0.008435,0.003328,-0.017533,0.016007,0.999336,0.027636,15.625000,15.609375,15.625000,15.750000,1.0053,1.0053,3810.95,357113,1,0,0,0,0,0,0,0,15.661577,15.652344,0.009233
284322960,2272,1690354704.96,5,44,1,0.00,29.505972764756944,106.440188530815973,303.622,-15.634,0.929,-0.476,1.789,-2.039,273.140,1.001925795950436,2.043848629663366,0.323976005876188,0.647,0.257,9.409,50,50,50,141,304,182,0.100,0.100,0.100,-0.000029,0.008435,0.003328,-0.017356,0.016091,0.999336,0.027668,15.609375,15.640625,15.609375,15.750000,1.0053,1.0053,3810.96,357114,1,0,0,0,0,0,0,0,15.661577,15.652344,0.009233
284322970,2272,1690354704.97,5,44,1,0.00,29.505972493489583,106.440188530815973,303.627,-15.706,0.890,-0.561,1.786,-2.034,273.144,-0.204984818532776,0.501962823919280,0.388971192240238,1.338,0.060,10.354,50,50,50,150,302,185,0.100,0.100,0.100,-0.000029,0.008435,0.003328,-0.017311,0.016071,0.999337,0.027703,15.609375,15.640625,15.609375,15.750000,1.0053,1.0053,3810.97,357115,1,0,0,0,0,0,0,0,15.731196,15.652344,0.078853
284322980,2272,1690354704.98,5,44,1,0.00,29.505968153211807,106.440188530815973,303.633,-15.706,0.890,-0.561,1.787,-2.021,273.150,0.084993705245295,1.330901431546937,0.582956825388327,0.965,0.069,11.350,50,50,50,150,302,185,0.100,0.100,0.100,-0.000029,0.008435,0.003328,-0.017196,0.016075,0.999337,0.027755,15.671875,15.656250,15.671875,15.812500,1.0053,1.0053,3810.98,357116,1,0,0,0,0,0,0,0,15.731196,15.703125,0.028071
284322990,2272,1690354704.99,5,44,1,0.00,29.505967610677082,106.440188802083327,303.638,-15.706,0.890,-0.561,1.788,-1.983,273.158,0.107992001958728,3.813717550653660,0.739945198606110,1.485,1.092,10.683,50,50,50,150,302,185,0.100,0.100,0.100,-0.000029,0.008435,0.003328,-0.016864,0.016074,0.999341,0.027825,15.671875,15.656250,15.671875,15.812500,1.0053,1.0053,3810.99,357117,1,0,0,0,0,0,0,0,15.731196,15.703125,0.028071
284323000,2272,1690354705.00,5,44,1,0.00,29.505968153211807,106.440188802083327,303.644,-15.706,0.890,-0.561,1.766,-1.939,273.164,-2.177838706167718,4.455670006741665,0.421968748394295,0.744,0.830,10.228,50,50,50,150,302,185,0.100,0.100,0.100,-0.000029,0.008435,0.003328,-0.016481,0.015873,0.999349,0.027865,15.671875,15.656250,15.671875,15.812500,1.0053,1.0053,3810.99,357118,1,0,0,0,0,0,0,0,15.731196,15.703125,0.028071
284323010,2272,1690354705.01,5,44,1,0.00,29.505967881944443,106.440189073350695,303.649,-15.706,0.890,-0.561,1.748,-1.865,273.171,-1.750870328053111,7.374453837459555,0.440967341331479,0.958,0.096,7.465,50,50,50,150,302,185,0.100,0.100,0.100,-0.000029,0.008435,0.003328,-0.015843,0.015703,0.999361,0.027912,15.640625,15.703125,15.640625,15.843750,1.0053,1.0053,3811.00,357119,1,0,0,0,0,0,0,0,15.731196,15.707031,0.024165
284323020,2272,1690354705.02,5,44,1,0.00,29.505962456597221,106.440189073350695,303.655,-15.706,0.890,-0.561,1.773,-1.873,273.176,2.492815378547344,-0.757943865599234,0.559958528674894,0.580,0.621,9.203,50,50,50,150,302,185,0.100,0.100,0.100,-0.000029,0.008435,0.003328,-0.015901,0.015922,0.999355,0.027962,15.640625,15.703125,15.640625,15.843750,1.0053,1.0053,3811.01,357120,1,0,0,0,0,0,0,0,15.731196,15.707031,0.024165
284323030,2272,1690354705.03,5,44,1,0.00,29.505962727864585,106.440189073350695,303.660,-15.706,0.890,-0.561,1.761,-1.860,273.181,-1.234908540916958,1.308903060777566,0.415969192729921,1.262,0.348,10.033,50,50,50,150,302,185,0.100,0.100,0.100,-0.000029,0.008435,0.003328,-0.015791,0.015811,0.999358,0.027999,15.640625,15.703125,15.640625,15.843750,1.0053,1.0053,3811.03,357121,1,0,0,0,0,0,0,0,15.731196,15.707031,0.024165
284323040,2272,1690354705.04,5,44,1,0.00,29.505962456597221,106.440188259548606,303.666,-15.706,0.890,-0.561,1.764,-1.832,273.187,0.383971562519927,2.796792865542288,0.559958528674894,1.094,0.904,8.818,50,50,50,150,302,185,0.100,0.100,0.100,-0.000029,0.008435,0.003328,-0.015547,0.015837,0.999360,0.028052,15.687500,15.703125,15.687500,15.890625,1.0053,1.0053,3811.04,357122,1,0,0,0,0,0,0,0,15.731196,15.742188,0.010991
284323050,2272,1690354705.05,5,44,1,0.00,29.505958116319444,106.440188259548606,303.671,-15.706,0.890,-0.561,1.753,-1.816,273.194,-1.099918538468545,1.631879140709693,0.668950456577686,0.914,0.086,8.618,50,50,50,150,302,185,0.100,0.100,0.100,-0.000029,0.008435,0.003328,-0.015405,0.015736,0.999362,0.028111,15.687500,15.703125,15.687500,15.890625,1.0053,1.0053,3811.05,357123,1,0,0,0,0,0,0,0,15.731196,15.742188,0.010991
284323060,2272,1690354705.06,5,44,1,0.00,29.505957845052084,106.440188259548606,303.677,-15.706,0.890,-0.561,1.736,-1.789,273.201,-1.736871364836239,2.661802863093875,0.653951567416751,1.184,0.369,9.265,50,50,50,150,302,185,0.100,0.100,0.100,-0.000029,0.008435,0.003328,-0.015180,0.015581,0.999366,0.028168,15.687500,15.703125,15.687500,15.875000,1.0053,1.0053,3811.06,357124,1,0,0,0,0,0,0,0,15.731196,15.738281,0.007085
284323070,2272,1690354705.07,5,40,1,0.00,29.505958116319444,106.440188530815973,303.682,-15.706,0.890,-0.561,1.733,-1.754,273.206,-0.319976302099941,3.549737101421209,0.361973191750556,1.029,0.421,8.967,50,50,50,150,302,185,0.100,0.100,0.100,-0.000029,0.008435,0.003328,-0.014871,0.015545,0.999370,0.028204,15.687500,15.703125,15.687500,15.875000,1.0053,1.0053,3811.07,357125,1,0,0,0,0,0,0,0,15.731196,15.738281,0.007085
284323080,2272,1690354705.08,5,40,1,0.00,29.505957845052084,106.440188530815973,303.687,-15.706,0.890,-0.561,1.746,-1.726,273.212,1.354899654204432,2.789793383933851,0.472964971541473,0.839,0.337,8.820,50,50,50,150,302,185,0.100,0.100,0.100,-0.000029,0.008435,0.003328,-0.014625,0.015656,0.999371,0.028251,15.687500,15.703125,15.687500,15.875000,1.0053,1.0053,3811.08,357126,1,0,0,0,0,0,0,0,15.731196,15.738281,0.007085
284323090,2272,1690354705.09,5,40,1,0.00,29.505952419704862,106.440188530815973,303.692,-15.706,0.890,-0.561,1.745,-1.716,273.217,-0.135989928392476,0.985926980845439,0.499962972031155,0.592,1.454,8.841,50,50,50,150,302,185,0.100,0.100,0.100,-0.000029,0.008435,0.003328,-0.014540,0.015641,0.999371,0.028295,15.703125,15.687500,15.703125,15.890625,1.0052,1.0052,3811.09,357127,1,0,0,0,0,0,0,0,15.731196,15.746094,0.014897
284323100,2272,1690354705.10,5,40,1,0.00,29.505952962239583,106.440188530815973,303.697,-15.706,0.890,-0.561,1.731,-1.707,273.222,-1.339900765043501,0.885934386439208,0.504962601751467,1.008,0.222,8.855,50,50,50,150,302,185,0.100,0.100,0.100,-0.000029,0.008435,0.003328,-0.014464,0.015522,0.999373,0.028339,15.703125,15.687500,15.703125,15.890625,1.0052,1.0052,3811.10,357128,1,0,0,0,0,0,0,0,15.731196,15.746094,0.014897
284323110,2272,1690354705.11,5,40,1,0.00,29.505952419704862,106.440188802083327,303.702,-15.706,0.890,-0.561,1.734,-1.691,273.229,0.284978894057758,1.637878696374067,0.575957343779891,1.025,0.208,8.339,50,50,50,150,302,185,0.100,0.100,0.100,-0.000029,0.008435,0.003328,-0.014321,0.015543,0.999373,0.028392,15.718750,15.750000,15.718750,15.890625,1.0052,1.0052,3811.11,357129,1,0,0,0,0,0,0,0,15.731196,15.769531,0.038335
284323120,2272,1690354705.12,5,40,1,0.00,29.505948079427082,106.440188802083327,303.706,-15.706,0.890,-0.561,1.738,-1.683,273.232,0.405969933289298,0.795941051473600,0.275979560561197,0.823,0.189,9.236,50,50,50,150,302,185,0.100,0.100,0.100,-0.000029,0.008435,0.003328,-0.014250,0.015576,0.999373,0.028417,15.718750,15.750000,15.718750,15.890625,1.0052,1.0052,3811.12,357130,1,0,0,0,0,0,0,0,15.731196,15.769531,0.038335
284323130,2272,1690354705.13,5,40,1,0.00,29.505947808159721,106.440187988281252,303.711,-15.706,0.890,-0.561,1.749,-1.674,273.237,1.158914169168219,0.975927721404816,0.479964453149909,1.009,0.101,9.434,50,50,50,150,302,185,0.100,0.100,0.100,-0.000029,0.008435,0.003328,-0.014163,0.015675,0.999371,0.028462,15.718750,15.750000,15.718750,15.890625,1.0052,1.0052,3811.13,357131,1,0,0,0,0,0,0,0,15.731196,15.769531,0.038335
284323140,2272,1690354705.14,5,40,1,0.00,29.505948350694446,106.440187988281252,303.716,-15.706,0.890,-0.561,1.774,-1.669,273.240,2.425820340295170,0.461965786156787,0.361973191750556,0.908,1.044,9.381,50,50,50,150,302,185,0.100,0.100,0.100,-0.000029,0.008435,0.003328,-0.014117,0.015885,0.999368,0.028497,15.812500,15.812500,15.812500,15.906250,1.0052,1.0052,3811.14,357132,1,0,0,0,0,0,0,0,15.731196,15.835938,0.104741
284323150,2272,1690354705.15,5,40,1,0.00,29.505947808159721,106.440187988281252,303.721,-15.706,0.890,-0.561,1.772,-1.659,273.244,-0.172987188322781,0.993926388397938,0.312976820491503,0.932,0.838,8.669,50,50,50,150,302,185,0.100,0.100,0.100,-0.000029,0.008435,0.003328,-0.014031,0.015867,0.999368,0.028525,15.812500,15.812500,15.812500,15.906250,1.0052,1.0052,3811.15,357133,1,0,0,0,0,0,0,0,15.731196,15.835938,0.104741
284323160,2272,1690354705.16,5,40,1,0.00,29.505943467881945,106.440188259548606,303.725,-15.706,0.890,-0.561,1.757,-1.658,273.248,-1.563884176513459,0.238982300630891,0.405969933289298,0.737,0.070,7.363,50,50,50,150,302,185,0.100,0.100,0.100,-0.000029,0.008435,0.003328,-0.014018,0.015734,0.999370,0.028558,15.812500,15.812500,15.812500,15.906250,1.0052,1.0052,3811.16,357134,1,0,0,0,0,0,0,0,15.731196,15.835938,0.104741
284323170,2272,1690354705.17,5,40,1,0.00,29.505942925347224,106.440188259548606,303.729,-15.907,0.854,-0.613,1.761,-1.702,273.253,0.412969414897734,-4.413673117091050,0.640952530143941,0.668,0.633,10.485,50,50,50,145,236,158,0.100,0.100,0.100,-0.000029,0.008435,0.003328,-0.014403,0.015781,0.999362,0.028608,15.750000,15.796875,15.750000,15.921875,1.0052,1.0052,3811.17,357135,1,0,0,0,0,0,0,0,15.929908,15.804688,0.125220
284323180,2272,1690354705.18,5,40,1,0.00,29.505942382812499,106.440188259548606,303.734,-15.907,0.854,-0.613,1.732,-1.674,273.257,-2.826790643864160,2.753796049947608,0.289978523778069,1.258,0.512,9.496,50,50,50,145,236,158,0.100,0.100,0.100,-0.000029,0.008435,0.003328,-0.014169,0.015527,0.999368,0.028634,15.750000,15.796875,15.750000,15.921875,1.0052,1.0052,3811.18,357136,1,0,0,0,0,0,0,0,15.929908,15.804688,0.125220
284323190,2272,1690354705.19,5,40,1,0.00,29.505938042534723,106.440188530815973,303.738,-15.907,0.854,-0.613,1.737,-1.641,273.264,0.447966822939915,3.378749764986553,0.609954825878009,0.767,0.562,7.124,50,50,50,145,236,158,0.100,0.100,0.100,-0.000029,0.008435,0.003328,-0.013874,0.015558,0.999370,0.028692,15.750000,15.843750,15.750000,15.921875,1.0052,1.0052,3811.19,357137,1,0,0,0,0,0,0,0,15.929908,15.816406,0.113502
284323200,2272,1690354705.20,5,40,1,0.00,29.505937500000002,106.440188530815973,303.742,-15.907,0.854,-0.613,1.737,-1.682,273.270,0.018998592937183,-4.110695556040169,0.783941940144852,0.973,0.989,8.620,50,50,50,145,236,158,0.100,0.100,0.100,-0.000029,0.008435,0.003328,-0.014233,0.015569,0.999363,0.028755,15.750000,15.843750,15.750000,15.921875,1.0052,1.0052,3811.20,357138,1,0,0,0,0,0,0,0,15.929908,15.816406,0.113502
284323210,2272,1690354705.21,5,40,1,0.00,29.505938042534723,106.440188802083327,303.746,-15.907,0.854,-0.613,1.677,-1.704,273.274,-6.013554627590750,-2.197837225048965,0.433967859723042,0.836,0.322,10.215,50,50,50,145,236,158,0.100,0.100,0.100,-0.000029,0.008435,0.003328,-0.014439,0.015051,0.999368,0.028783,15.843750,15.843750,15.843750,15.921875,1.0052,1.0052,3811.21,357139,1,0,0,0,0,0,0,0,15.929908,15.863281,0.066627
284323220,2272,1690354705.22,5,40,1,0.00,29.505937771267362,106.440188802083327,303.750,-15.907,0.854,-0.613,1.676,-1.714,273.281,-0.026998000489684,-0.973927869516694,0.682949419794558,0.765,-0.264,9.537,50,50,50,145,236,158,0.100,0.100,0.100,-0.000029,0.008435,0.003328,-0.014525,0.015050,0.999365,0.028841,15.843750,15.843750,15.843750,15.921875,1.0052,1.0052,3811.22,357140,1,0,0,0,0,0,0,0,15.929908,15.863281,0.066627
284323230,2272,1690354705.23,5,40,1,0.00,29.505933430989582,106.440188802083327,303.755,-15.907,0.854,-0.613,1.698,-1.709,273.285,2.210836262321772,0.505962527695529,0.408969711121485,0.855,0.611,9.296,50,50,50,145,236,158,0.100,0.100,0.100,-0.000029,0.008435,0.003328,-0.014476,0.015242,0.999362,0.028880,15.843750,15.843750,15.843750,15.921875,1.0052,1.0052,3811.23,357141,1,0,0,0,0,0,0,0,15.929908,15.863281,0.066627
284323240,2272,1690354705.24,5,40,1,0.00,29.505932617187501,106.440193142361110,303.758,-15.907,0.854,-0.613,1.691,-1.696,273.288,-0.711947272172368,1.281905060287884,0.299977783218692,1.143,0.244,8.074,50,50,50,145,236,158,0.100,0.100,0.100,-0.000029,0.008435,0.003328,-0.014366,0.015176,0.999363,0.028907,15.859375,15.828125,15.859375,15.921875,1.0052,1.0052,3811.24,357142,1,0,0,0,0,0,0,0,15.929908,15.867188,0.062720
284323250,2272,1690354705.25,5,40,1,0.00,29.505933430989582,106.440193142361110,303.763,-15.907,0.854,-0.613,1.704,-1.745,273.293,1.279905208399759,-4.865639643807215,0.667950530633624,0.932,0.474,8.623,50,50,50,145,236,158,0.100,0.100,0.100,-0.000029,0.008435,0.003328,-0.014789,0.015300,0.999354,0.028960,15.859375,15.828125,15.859375,15.921875,1.0052,1.0052,3811.25,357143,1,0,0,0,0,0,0,0,15.929908,15.867188,0.062720
284323260,2272,1690354705.26,5,40,1,0.00,29.505928005642360,106.440193142361110,303.767,-15.907,0.854,-0.613,1.703,-1.804,273.300,-0.127990520839977,-5.880564477030463,0.878934904830772,1.022,0.869,10.819,50,50,50,145,236,158,0.100,0.100,0.100,-0.000029,0.008435,0.003328,-0.015303,0.015308,0.999344,0.029027,15.828125,15.875000,15.828125,16.031250,1.0052,1.0052,3811.26,357144,1,0,0,0,0,0,0,0,15.929908,15.890625,0.039283
284323270,2272,1690354705.27,5,40,1,0.00,29.505928276909721,106.440193142361110,303.771,-15.968,0.882,-0.556,1.677,-1.817,273.305,-2.531812490365778,-1.347900172595999,0.549959269234271,0.737,-0.100,9.631,50,50,50,148,289,182,0.100,0.100,0.100,-0.000029,0.008435,0.003328,-0.015425,0.015090,0.999344,0.029069,15.828125,15.875000,15.828125,16.031250,1.0052,1.0052,3811.27,357145,1,0,0,0,0,0,0,0,15.992340,15.890625,0.101715
284323280,2272,1690354705.28,5,40,1,0.00,29.505928005642360,106.440193413628478,303.775,-15.968,0.882,-0.556,1.700,-1.824,273.312,2.270831818965511,-0.587956455108641,0.697948308955493,1.144,-0.458,8.113,50,50,50,148,289,182,0.100,0.100,0.100,-0.000029,0.008435,0.003328,-0.015472,0.015289,0.999338,0.029132,15.828125,15.875000,15.828125,16.031250,1.0052,1.0052,3811.28,357146,1,0,0,0,0,0,0,0,15.992340,15.890625,0.101715
284323290,2272,1690354705.29,5,40,1,0.00,29.505927734375000,106.440193413628478,303.779,-15.968,0.882,-0.556,1.726,-1.850,273.316,2.631805084772006,-2.655803307429504,0.513961935248027,1.027,0.371,10.170,50,50,50,148,289,182,0.100,0.100,0.100,-0.000029,0.008435,0.003328,-0.015697,0.015525,0.999330,0.029177,15.906250,15.906250,15.906250,16.015625,1.0052,1.0052,3811.29,357147,1,0,0,0,0,0,0,0,15.992340,15.933594,0.058747
284323300,2272,1690354705.30,5,40,1,0.00,29.505923122829863,106.440193413628478,303.782,-15.968,0.882,-0.556,1.738,-1.876,273.321,1.166913576720717,-2.540811823862338,0.510962157415841,1.033,-0.021,10.566,50,50,50,148,289,182,0.100,0.100,0.100,-0.000029,0.008435,0.003328,-0.015916,0.015633,0.999324,0.029219,15.906250,15.906250,15.906250,16.015625,1.0052,1.0052,3811.30,357148,1,0,0,0,0,0,0,0,15.992340,15.933594,0.058747
284323310,2272,1690354705.31,5,40,1,0.00,29.505922580295138,106.440193684895831,303.786,-15.968,0.882,-0.556,1.765,-1.920,273.328,2.732797605122300,-4.430671858140109,0.829938533571718,1.015,0.399,11.908,50,50,50,148,289,182,0.100,0.100,0.100,-0.000029,0.008435,0.003328,-0.016294,0.015882,0.999311,0.029289,15.906250,15.906250,15.906250,16.015625,1.0052,1.0052,3811.31,357149,1,0,0,0,0,0,0,0,15.992340,15.933594,0.058747
284323320,2272,1690354705.32,5,40,1,0.00,29.505923394097223,106.440193684895831,303.790,-15.968,0.882,-0.556,1.756,-1.893,273.341,-0.864935941613902,2.733797531066362,1.249907430077890,0.889,1.465,9.250,50,50,50,148,289,182,0.100,0.100,0.100,-0.000029,0.008435,0.003328,-0.016060,0.015798,0.999313,0.029401,15.921875,15.953125,15.921875,16.015625,1.0052,1.0052,3811.32,357150,1,0,0,0,0,0,0,0,15.992340,15.953125,0.039215
284323330,2272,1690354705.33,5,40,1,0.00,29.505917968750001,106.440193956163199,303.794,-15.968,0.882,-0.556,1.724,-1.929,273.350,-3.162765761069097,-3.547737249533087,0.965928461964193,0.798,0.349,9.350,50,50,50,148,289,182,0.100,0.100,0.100,-0.000029,0.008435,0.003328,-0.016378,0.015530,0.999310,0.029475,15.921875,15.953125,15.921875,16.015625,1.0052,1.0052,3811.33,357151,1,0,0,0,0,0,0,0,15.992340,15.953125,0.039215
284323340,2272,1690354705.34,5,40,1,0.00,29.505918240017362,106.440193956163199,303.798,-15.968,0.882,-0.556,1.699,-1.931,273.360,-2.417820932742674,-0.193985633148090,1.000925870006374,1.342,0.215,9.404,50,50,50,148,289,182,0.100,0.100,0.100,-0.000029,0.008435,0.003328,-0.016403,0.015319,0.999311,0.029559,15.921875,15.953125,15.921875,16.015625,1.0052,1.0052,3811.34,357152,1,0,0,0,0,0,0,0,15.992340,15.953125,0.039215
284323350,2272,1690354705.35,5,40,1,0.00,29.505917968750001,106.440193956163199,303.804,-15.968,0.882,-0.556,1.741,-1.970,273.364,4.149692667858597,-3.865713699744902,0.616954307486446,1.440,0.912,10.461,50,50,50,148,289,182,0.100,0.100,0.100,-0.000029,0.008435,0.003328,-0.016730,0.015690,0.999298,0.029613,15.875000,15.937500,15.875000,16.031250,1.0052,1.0052,3811.35,357153,1,0,0,0,0,0,0,0,15.992340,15.929688,0.062653
284323360,2272,1690354705.36,5,40,1,0.00,29.505913357204861,106.440193142361110,303.808,-15.968,0.882,-0.556,1.761,-1.992,273.367,2.053847889103989,-2.211836188265837,0.277979412449322,1.157,0.919,11.457,50,50,50,148,289,182,0.100,0.100,0.100,-0.000029,0.008435,0.003328,-0.016917,0.015875,0.999291,0.029637,15.875000,15.937500,15.875000,16.031250,1.0052,1.0052,3811.36,357154,1,0,0,0,0,0,0,0,15.992340,15.929688,0.062653
284323370,2272,1690354705.37,5,40,1,0.00,29.505913085937500,106.440193142361110,303.812,-15.959,0.918,-0.407,1.773,-1.982,273.369,1.165913650776655,1.037923129936679,0.242982004407141,0.838,0.610,9.680,50,50,50,139,317,194,0.100,0.100,0.100,-0.000029,0.008435,0.003328,-0.016823,0.015974,0.999290,0.029662,15.953125,15.906250,15.953125,16.000000,1.0052,1.0052,3811.37,357155,1,0,0,0,0,0,0,0,15.985381,15.953125,0.032256
284323380,2272,1690354705.38,5,40,1,0.00,29.505912543402779,106.440193142361110,303.816,-15.959,0.918,-0.407,1.778,-2.022,273.374,0.482964230982096,-4.072698370165802,0.606955048045822,0.965,-0.006,11.000,50,50,50,139,317,194,0.100,0.100,0.100,-0.000029,0.008435,0.003328,-0.017178,0.016026,0.999282,0.029709,15.953125,15.906250,15.953125,16.000000,1.0052,1.0052,3811.38,357156,1,0,0,0,0,0,0,0,15.985381,15.953125,0.032256
284323390,2272,1690354705.39,5,40,1,0.00,29.505913085937500,106.440193413628478,303.821,-15.959,0.918,-0.407,1.762,-2.011,273.382,-1.511888027422218,1.138915650286973,0.787941643921101,1.190,0.130,12.460,50,50,50,139,317,194,0.100,0.100,0.100,-0.000029,0.008435,0.003328,-0.017084,0.015890,0.999284,0.029777,15.953125,15.906250,15.953125,16.000000,1.0052,1.0052,3811.39,357157,1,0,0,0,0,0,0,0,15.985381,15.953125,0.032256
284323400,2272,1690354705.40,5,40,1,0.00,29.505907660590278,106.440193413628478,303.826,-15.959,0.918,-0.407,1.791,-1.989,273.387,2.918783830717889,2.273831596797698,0.439967415387416,1.271,0.400,11.234,50,50,50,139,317,194,0.100,0.100,0.100,-0.000029,0.008435,0.003328,-0.016878,0.016138,0.999282,0.029823,15.921875,15.968750,15.921875,16.109375,1.0052,1.0052,3811.40,357158,1,0,0,0,0,0,0,0,15.985381,15.980469,0.004912
284323410,2272,1690354705.41,5,40,1,0.00,29.505908203124999,106.440193684895831,303.831,-15.959,0.918,-0.407,1.813,-1.959,273.394,2.185838113720215,2.997777980298812,0.543959713569897,1.168,1.272,11.528,50,50,50,139,317,194,0.100,0.100,0.100,-0.000029,0.008435,0.003328,-0.016612,0.016321,0.999282,0.029878,15.921875,15.968750,15.921875,16.109375,1.0052,1.0052,3811.41,357159,1,0,0,0,0,0,0,0,15.985381,15.980469,0.004912
284323420,2272,1690354705.42,5,40,1,0.00,29.505907660590278,106.440193684895831,303.836,-15.959,0.918,-0.407,1.798,-1.904,273.398,-1.475890693435975,5.457595802692102,0.294978153498381,0.801,0.495,8.589,50,50,50,139,317,194,0.100,0.100,0.100,-0.000029,0.008435,0.003328,-0.016140,0.016178,0.999291,0.029909,15.921875,15.968750,15.921875,16.125000,1.0052,1.0052,3811.42,357160,1,0,0,0,0,0,0,0,15.985381,15.984375,0.001006
