,sec_of_week,gps_week_number,utc,position_type,numsv,ins_status,temperature,latitude,longitude,altitude,north_velocity,east_velocity,ground_velocity,roll,pitch,heading,x_angular_velocity,y_angular_velocity,z_angular_velocity,x_acc,y_acc,z_acc,latitude_std,longitude_std,altitude_std,north_velocity_std,east_velocity_std,ground_velocity_std,roll_std,pitch_std,heading_std,atb_0,atb_1,atb_2,q_x,q_y,q_z,q_w,fl_wheel_vel,fr_wheel_vel,rl_wheel_vel,rr_wheel_vel,l_wheel_factor,r_wheel_factor,time_stamp,seq,time_valid,timestamp_sab_vehicle,x_angular_velocity_bias,y_angular_velocity_bias,z_angular_velocity_bias,x_acc_bias,y_acc_bias,z_acc_bias,gps_velocity,wheel_speed,dv,new_longitude,new_latitude
2889,283734400,2272,1690354116.4,4,27,0,0.0,29.580092230902775,106.46743408203125,232.816,-12.49,-13.966,-0.136,2.595,-0.03,222.015,-0.778942310424543,-1.087919427139798,0.032997556154055,-0.342,0.269,8.321,50,50,79,123,235,150,0.1,0.1,0.1,-2.8e-05,0.008451,0.003309,-0.009442,0.020584,0.913369,-0.406503,18.609375,18.53125,18.609375,18.65625,1.0068,1.0068,3222.4,298258,1,0,0,0,0,0,0,0,18.736308,18.601562,0.134746,106.46349113469878,29.582704856704346
2890,283734410,2272,1690354116.41,4,27,0,0.0,29.580087890625,106.46743326822916,232.817,-12.49,-13.966,-0.136,2.578,-0.071,222.013,-1.619880029380948,-4.122694667368918,-0.048996371259055,-0.223,0.02,9.889,50,50,80,123,235,150,0.1,0.1,0.1,-2.8e-05,0.008451,0.003309,-0.009712,0.020307,0.913366,-0.406516,18.59375,18.59375,18.59375,18.640625,1.0068,1.0068,3222.41,298259,1,0,0,0,0,0,0,0,18.736308,18.605469,0.13084,106.46349031910346,29.582700515759882
2891,283734420,2272,1690354116.42,4,27,0,0.0,29.580087890625,106.46742892795137,232.817,-12.49,-13.966,-0.136,2.589,-0.092,222.013,1.098918612524481,-2.090845149034297,0.152988669441532,0.117,-0.302,10.921,50,50,80,123,235,150,0.1,0.1,0.1,-2.8e-05,0.008451,0.003309,-0.009917,0.020321,0.913368,-0.406507,18.59375,18.59375,18.59375,18.640625,1.0068,1.0068,3222.42,298260,1,0,0,0,0,0,0,0,18.736308,18.605469,0.13084,106.46348596784959,29.582700504564446
2892,283734430,2272,1690354116.43,4,27,0,0.0,29.58008761935764,106.46742865668402,232.817,-12.49,-13.966,-0.136,2.62,-0.077,222.014,3.107769834145667,1.518887509030652,0.025998074545619,-0.025,0.214,11.084,50,50,80,123,235,150,0.1,0.1,0.1,-2.8e-05,0.008451,0.003309,-0.009906,0.020623,0.913364,-0.4065,18.59375,18.5625,18.59375,18.65625,1.0068,1.0068,3222.43,298261,1,0,0,0,0,0,0,0,18.736308,18.601562,0.134746,106.46348569591281,29.58270023268692
2893,283734440,2272,1690354116.44,4,27,0,0.0,29.58008761935764,106.46742892795137,232.818,-12.49,-13.966,-0.136,2.632,-0.053,222.014,1.117917205461664,2.288830485958632,-0.157988299161847,-0.288,0.72,10.771,50,50,80,123,235,150,0.1,0.1,0.1,-2.8e-05,0.008451,0.003309,-0.009761,0.020794,0.913358,-0.406507,18.59375,18.5625,18.59375,18.65625,1.0068,1.0068,3222.44,298262,1,0,0,0,0,0,0,0,18.736308,18.601562,0.134746,106.46348596786615,29.58270023338662
2894,283734450,2272,1690354116.45,4,27,0,0.0,29.580082465277776,106.46742865668402,232.819,-12.49,-13.966,-0.136,2.622,-0.012,222.014,-0.943930091194825,4.177690594292342,-0.11599140951123,-0.036,0.87,10.331,50,50,80,123,235,150,0.1,0.1,0.1,-2.8e-05,0.008451,0.00331,-0.009394,0.020867,0.913359,-0.40651,18.59375,18.5625,18.59375,18.65625,1.0068,1.0068,3222.45,298263,1,0,0,0,0,0,0,0,18.736308,18.601562,0.134746,106.46348569622731,29.5826950803082
2895,283734460,2272,1690354116.46,4,27,0,0.0,29.580082465277776,106.4674232313368,232.819,-12.49,-13.966,-0.136,2.615,0.013,222.015,-0.762943495319546,2.454818192672977,0.005999555664372,-0.222,0.786,9.303,50,50,80,123,235,150,0.1,0.1,0.1,-2.8e-05,0.008451,0.00331,-0.009173,0.020893,0.913363,-0.406507,18.5625,18.5625,18.5625,18.578125,1.0068,1.0068,3222.46,298264,1,0,0,0,0,0,0,0,18.736308,18.566406,0.169902,106.46348025716077,29.582695066314614
2896,283734470,2272,1690354116.47,4,27,0,0.0,29.580082465277776,106.46742377387152,232.82,-12.492,-13.96,-0.074,2.606,0.027,222.015,-0.895933645879834,1.364898913645056,-0.131990224616227,-0.348,0.503,8.515,50,50,80,127,261,163,0.1,0.1,0.1,-2.8e-05,0.008451,0.00331,-0.009031,0.020871,0.913361,-0.406515,18.5625,18.5625,18.5625,18.578125,1.0068,1.0068,3222.47,298265,1,0,0,0,0,0,0,0,18.73317,18.566406,0.166764,106.46348080106738,29.58269506771394
2897,283734480,2272,1690354116.48,4,27,0,0.0,29.5800830078125,106.4674232313368,232.82,-12.492,-13.96,-0.074,2.604,0.019,222.015,-0.137989780280601,-0.772942754760169,0.042996815594678,-0.296,-0.111,8.833,50,50,80,127,261,163,0.1,0.1,0.1,-2.8e-05,0.008451,0.00331,-0.009087,0.020833,0.913362,-0.406514,18.5625,18.59375,18.5625,18.578125,1.0068,1.0068,3222.48,298266,1,0,0,0,0,0,0,0,18.73317,18.574219,0.158951,106.46348025712766,29.58269560867027
2898,283734490,2272,1690354116.49,4,27,0,0.0,29.58007785373264,106.46741889105903,232.821,-12.492,-13.96,-0.074,2.62,0.015,222.013,1.620879955325008,-0.388971192240241,-0.173987114266844,-0.205,0.318,9.658,50,50,80,127,261,163,0.1,0.1,0.1,-2.8e-05,0.008451,0.00331,-0.009175,0.020949,0.913352,-0.406527,18.5625,18.59375,18.5625,18.578125,1.0068,1.0068,3222.49,298267,1,0,0,0,0,0,0,0,18.73317,18.574219,0.158951,106.46347590618954,29.582690445097256
2899,283734500,2272,1690354116.5,4,27,0,0.0,29.58007785373264,106.46741861979169,232.821,-12.492,-13.96,-0.074,2.63,0.038,222.011,0.924931498257638,2.234834484979268,-0.277979412449324,-0.241,0.404,9.391,50,50,80,127,261,163,0.1,0.1,0.1,-2.8e-05,0.008451,0.00331,-0.009029,0.021103,0.913342,-0.406545,18.5625,18.59375,18.5625,18.578125,1.0068,1.0068,3222.5,298268,1,0,0,0,0,0,0,0,18.73317,18.574219,0.158951,106.46347563423629,29.582690444397628
2900,283734510,2272,1690354116.51,4,27,0,0.0,29.58007785373264,106.46741889105903,232.822,-12.492,-13.96,-0.074,2.635,0.045,222.01,0.598955640493324,0.759943717487356,-0.118991187343417,-0.076,0.236,8.901,50,50,80,127,261,163,0.1,0.1,0.1,-2.8e-05,0.008451,0.00331,-0.008989,0.021176,0.913337,-0.406553,18.59375,18.5625,18.59375,18.640625,1.0068,1.0068,3222.51,298269,1,0,0,0,0,0,0,0,18.73317,18.597656,0.135514,106.46347590618954,29.582690445097256
2901,283734520,2272,1690354116.52,4,27,0,0.0,29.58007758246528,106.46741861979169,232.822,-12.492,-13.96,-0.074,2.639,0.039,222.011,0.388971192240238,-0.718946753780804,0.094992964685918,-0.184,0.509,8.83,50,50,81,127,261,163,0.1,0.1,0.1,-2.8e-05,0.008451,0.00331,-0.009056,0.021182,0.913339,-0.406547,18.59375,18.5625,18.59375,18.640625,1.0068,1.0068,3222.52,298270,1,0,0,0,0,0,0,0,18.73317,18.597656,0.135514,106.46347563425284,29.582690173219802
2902,283734530,2272,1690354116.53,4,27,0,0.0,29.58007758246528,106.46741319444445,232.822,-12.492,-13.96,-0.074,2.637,0.027,222.01,-0.265980301120577,-1.161913947000409,-0.008999333496562,-0.201,0.393,8.601,50,50,81,127,261,163,0.1,0.1,0.1,-2.8e-05,0.008451,0.00331,-0.009139,0.02112,0.913338,-0.40655,18.578125,18.546875,18.578125,18.65625,1.0067,1.0067,3222.53,298271,1,0,0,0,0,0,0,0,18.73317,18.589844,0.143326,106.46347019518782,29.582690159227614
2903,283734540,2272,1690354116.54,4,27,0,0.0,29.580072428385417,106.46741400824652,232.822,-12.492,-13.96,-0.074,2.645,0.008,222.011,0.789941495809226,-1.9448559612012,0.13898970622466,-0.328,-0.039,9.003,50,50,81,127,261,163,0.1,0.1,0.1,-2.8e-05,0.008451,0.00331,-0.009318,0.021116,0.91334,-0.406543,18.578125,18.546875,18.578125,18.65625,1.0067,1.0067,3222.54,298272,1,0,0,0,0,0,0,0,18.73317,18.589844,0.143326,106.46347101136202,29.582685008947735
2904,283734550,2272,1690354116.55,5,27,1,0.0,29.580073242187495,106.46741319444445,232.821,-12.492,-13.96,-0.074,2.659,-0.016,222.01,1.4618917302191,-2.364824857707371,0.091993186853731,-0.162,0.306,9.721,50,50,81,127,261,163,0.1,0.1,0.1,-2.8e-05,0.008451,0.00331,-0.009558,0.021149,0.913339,-0.406538,18.578125,18.546875,18.578125,18.65625,1.0067,1.0067,3222.55,298273,1,0,0,0,0,0,0,0,18.73317,18.589844,0.143326,106.46347019545267,29.58268582038242
2905,283734560,2272,1690354116.56,5,27,1,0.0,29.580073242187495,106.46740858289932,232.821,-12.492,-13.96,-0.074,2.678,-0.019,222.009,2.051848037215865,-0.546959491402086,-0.083993779301236,-0.21,0.737,9.992,50,50,80,127,261,163,0.1,0.1,0.1,-2.8e-05,0.008451,0.00331,-0.00965,0.02129,0.913331,-0.406546,18.59375,18.578125,18.59375,18.59375,1.0067,1.0067,3222.56,298274,1,0,0,0,0,0,0,0,18.73317,18.589844,0.143326,106.4634655722481,29.582685808489654
2906,283734570,2272,1690354116.57,5,27,1,0.0,29.580072970920135,106.46740831163194,232.821,-12.495,-13.961,0.015,2.683,-0.015,222.008,0.512962009303965,0.318976376155876,-0.10299237223842,0.003,0.732,9.504,50,50,80,131,273,170,0.1,0.1,0.1,-2.8e-05,0.008451,0.00331,-0.009641,0.021343,0.913327,-0.406553,18.59375,18.578125,18.59375,18.59375,1.0067,1.0067,3222.57,298275,1,0,0,0,0,0,0,0,18.735916,18.589844,0.146072,106.46346530031144,29.58268553661227
2907,283734580,2272,1690354116.58,5,27,1,0.0,29.58006781684028,106.46740912543405,232.821,-12.495,-13.961,0.015,2.683,-0.02,222.007,-0.064995186364052,-0.508962305527719,-0.05999555664374,-0.186,0.376,8.829,50,50,80,131,273,170,0.1,0.1,0.1,-2.8e-05,0.008451,0.00331,-0.009679,0.02132,0.913324,-0.406559,18.59375,18.59375,18.59375,18.578125,1.0067,1.0067,3222.58,298276,1,0,0,0,0,0,0,0,18.735916,18.589844,0.146072,106.46346611648555,29.582680386332328
2908,283734590,2272,1690354116.59,5,27,1,0.0,29.58006781684028,106.46740858289932,232.821,-12.495,-13.961,0.015,2.685,-0.049,222.007,0.196985410980274,-2.867787607570714,0.102992372238417,-0.16,0.45,9.094,50,50,80,131,273,170,0.1,0.1,0.1,-2.8e-05,0.008451,0.00331,-0.009913,0.021235,0.913325,-0.406556,18.59375,18.59375,18.59375,18.578125,1.0067,1.0067,3222.59,298277,1,0,0,0,0,0,0,0,18.735916,18.589844,0.146072,106.46346557257915,29.58268038493321
2909,283734600,2272,1690354116.6,5,27,1,0.0,29.58006754557292,106.46740397135416,232.82,-12.495,-13.961,0.015,2.682,-0.073,222.006,-0.228983041190271,-2.429820044071421,0.057995704755613,-0.028,0.243,9.563,50,50,81,131,273,170,0.1,0.1,0.1,-2.8e-05,0.008451,0.00331,-0.010098,0.021131,0.913325,-0.406557,18.59375,18.59375,18.59375,18.578125,1.0067,1.0067,3222.6,298278,1,0,0,0,0,0,0,0,18.735916,18.589844,0.146072,106.46346094939169,29.58268010186316
2910,283734610,2272,1690354116.61,5,27,1,0.0,29.58006754557292,106.4674037000868,232.82,-12.495,-13.961,0.015,2.687,-0.093,222.006,0.439967415387416,-2.070846630153051,0.068994890140298,-0.004,0.245,9.561,50,50,81,131,273,170,0.1,0.1,0.1,-2.8e-05,0.008451,0.00331,-0.010277,0.021091,0.913325,-0.406555,18.546875,18.546875,18.546875,18.609375,1.0067,1.0067,3222.61,298279,1,0,0,0,0,0,0,0,18.735916,18.5625,0.173416,106.46346067743853,29.582680101163636
2911,283734620,2272,1690354116.62,5,27,1,0.0,29.58006727430556,106.46740342881944,232.82,-12.495,-13.961,0.015,2.69,-0.113,222.006,0.364972969582743,-1.97085403574682,0.102992372238417,0.121,0.409,9.985,50,50,81,131,273,170,0.1,0.1,0.1,-2.8e-05,0.008451,0.00331,-0.010445,0.021051,0.913326,-0.406551,18.546875,18.546875,18.546875,18.609375,1.0067,1.0067,3222.62,298280,1,0,0,0,0,0,0,0,18.735916,18.5625,0.173416,106.46346040550193,29.582679829286292
2912,283734630,2272,1690354116.63,5,27,1,0.0,29.58006320529514,106.46739908854165,232.819,-12.495,-13.961,0.015,2.688,-0.13,222.007,-0.244981856295268,-1.708873438402494,0.145989187833096,0.197,0.518,10.75,50,50,81,131,273,170,0.1,0.1,0.1,-2.8e-05,0.008451,0.00331,-0.010573,0.020971,0.91333,-0.406542,18.5625,18.546875,18.5625,18.625,1.0067,1.0067,3222.63,298281,1,0,0,0,0,0,0,0,18.735916,18.574219,0.161697,106.46345605450001,29.58267575042685
2913,283734640,2272,1690354116.64,5,27,1,0.0,29.58006320529514,106.46739827473958,232.819,-12.495,-13.961,0.015,2.685,-0.129,222.007,-0.305977338883069,0.058995630699675,0.065995112308111,0.158,0.614,10.306,50,50,81,131,273,170,0.1,0.1,0.1,-2.8e-05,0.008451,0.00331,-0.010554,0.02095,0.913333,-0.406538,18.5625,18.546875,18.5625,18.625,1.0067,1.0067,3222.64,298282,1,0,0,0,0,0,0,0,18.735916,18.574219,0.161697,106.46345523864068,29.582675748328384
2914,283734650,2272,1690354116.65,5,27,1,0.0,29.58006320529514,106.46739908854165,232.819,-12.495,-13.961,0.015,2.681,-0.127,222.008,-0.406969859233363,0.219983707693707,0.045996593426865,-0.073,0.503,9.633,50,50,81,131,273,170,0.1,0.1,0.1,-2.8e-05,0.008451,0.00331,-0.010522,0.020926,0.913335,-0.406534,18.5625,18.546875,18.5625,18.625,1.0067,1.0067,3222.65,298283,1,0,0,0,0,0,0,0,18.735916,18.574219,0.161697,106.46345605450001,29.58267575042685
2915,283734660,2272,1690354116.66,5,27,1,0.0,29.58006266276041,106.46739827473958,232.819,-12.495,-13.961,0.015,2.676,-0.135,222.008,-0.478964527205849,-1.007925351614813,0.097992742518105,0.179,0.41,10.129,50,50,80,131,273,170,0.1,0.1,0.1,-2.8e-05,0.008451,0.00331,-0.010572,0.020855,0.913338,-0.406531,18.578125,18.546875,18.578125,18.609375,1.0067,1.0067,3222.66,298284,1,0,0,0,0,0,0,0,18.735916,18.578125,0.157791,106.46345523867377,29.582675205972738
2916,283734670,2272,1690354116.67,5,27,1,0.0,29.58005777994792,106.4673939344618,232.818,-12.502,-13.961,0.079,2.679,-0.141,222.009,0.335975117204936,-0.591956158884891,0.146989113777159,0.305,0.362,10.214,50,50,80,128,260,163,0.1,0.1,0.1,-2.8e-05,0.008451,0.00331,-0.010628,0.020862,0.913342,-0.40652,18.578125,18.546875,18.578125,18.609375,1.0067,1.0067,3222.67,298285,1,0,0,0,0,0,0,0,18.740585,18.578125,0.16246,106.46345088772216,29.58267031358045
2917,283734680,2272,1690354116.68,5,27,1,0.0,29.58005750868056,106.46739366319444,232.818,-12.502,-13.961,0.079,2.686,-0.147,222.011,0.664950752801437,-0.566958010283333,0.169987410490592,0.402,0.459,10.058,50,50,81,128,260,163,0.1,0.1,0.1,-2.8e-05,0.008451,0.00331,-0.010697,0.020895,0.913346,-0.406507,18.5625,18.5625,18.5625,18.65625,1.0067,1.0067,3222.68,298286,1,0,0,0,0,0,0,0,18.740585,18.585938,0.154647,106.46345061578565,29.582670041703178
2918,283734690,2272,1690354116.69,5,27,1,0.0,29.58005750868056,106.46739420572916,232.818,-12.502,-13.961,0.079,2.684,-0.157,222.011,-0.14198948405685,-1.10191839035667,0.074994445804672,0.233,0.314,10.724,50,50,81,128,260,163,0.1,0.1,0.1,-2.8e-05,0.008451,0.00331,-0.010775,0.020846,0.913348,-0.406504,18.5625,18.5625,18.5625,18.65625,1.0067,1.0067,3222.69,298287,1,0,0,0,0,0,0,0,18.740585,18.585938,0.154647,106.4634511596918,29.58267004310209
2919,283734700,2272,1690354116.7,5,27,1,0.0,29.58005750868056,106.46738878038192,232.818,-12.502,-13.961,0.079,2.695,-0.15,222.012,1.11591735357354,0.707947568396116,0.078994149580921,0.212,0.442,10.602,50,50,81,128,260,163,0.1,0.1,0.1,-2.8e-05,0.008451,0.003311,-0.010759,0.02096,0.913349,-0.406495,18.5625,18.5625,18.5625,18.65625,1.0067,1.0067,3222.7,298288,1,0,0,0,0,0,0,0,18.740585,18.585938,0.154647,106.46344572063053,29.582670029113295
2920,283734710,2272,1690354116.71,5,27,1,0.0,29.580053168402777,106.4673882378472,232.818,-12.502,-13.961,0.079,2.703,-0.138,222.013,0.792941273641413,1.22390935553227,0.054995926923426,0.153,0.558,10.479,50,50,81,128,260,163,0.1,0.1,0.1,-2.8e-05,0.008451,0.003311,-0.010687,0.021065,0.91335,-0.406489,18.5625,18.546875,18.5625,18.59375,1.0067,1.0067,3222.71,298289,1,0,0,0,0,0,0,0,18.740585,18.566406,0.174179,106.46344517698931,29.58266568886937
2921,283734720,2272,1690354116.72,5,27,1,0.0,29.580052897135417,106.4673890516493,232.818,-12.502,-13.961,0.079,2.699,-0.118,222.014,-0.395970673848677,1.986852850851814,-0.011999111328749,0.21,0.67,10.075,50,50,81,128,260,163,0.1,0.1,0.1,-2.8e-05,0.008451,0.003311,-0.010514,0.021105,0.913352,-0.406487,18.5625,18.546875,18.5625,18.59375,1.0067,1.0067,3222.72,298290,1,0,0,0,0,0,0,0,18.740585,18.566406,0.174179,106.463445992865,29.582665419789812
2922,283734730,2272,1690354116.73,5,27,1,0.0,29.580052897135417,106.4673882378472,232.819,-12.502,-13.961,0.079,2.694,-0.094,222.016,-0.546959491402086,2.341826560993935,0.064995186364049,0.206,0.395,9.617,50,50,81,128,260,163,0.1,0.1,0.1,-2.8e-05,0.008451,0.003311,-0.010308,0.021144,0.913358,-0.406478,18.5625,18.5625,18.5625,18.625,1.0067,1.0067,3222.73,298291,1,0,0,0,0,0,0,0,18.740585,18.578125,0.16246,106.46344517700585,29.58266541769155
2923,283734740,2272,1690354116.74,5,27,1,0.0,29.580052897135417,106.46738389756943,232.819,-12.502,-13.961,0.079,2.694,-0.081,222.017,0.059995556643737,1.281905060287884,0.03099770426593,0.256,0.466,9.383,50,50,81,128,260,163,0.1,0.1,0.1,-2.8e-05,0.008451,0.003311,-0.010206,0.021196,0.91336,-0.406473,18.5625,18.5625,18.5625,18.625,1.0067,1.0067,3222.74,298292,1,0,0,0,0,0,0,0,18.740585,18.578125,0.16246,106.46344082575753,29.582665406501118
2924,283734750,2272,1690354116.75,5,27,1,0.0,29.580052625868056,106.46738335503473,232.818,-12.502,-13.961,0.079,2.697,-0.076,222.017,0.217983855805583,0.555958824898644,0.0609954825878,0.069,0.685,9.508,50,50,82,128,260,163,0.1,0.1,0.1,-2.8e-05,0.008451,0.003311,-0.010169,0.021233,0.913362,-0.406467,18.5625,18.5625,18.5625,18.625,1.0067,1.0067,3222.75,298293,1,0,0,0,0,0,0,0,18.740585,18.578125,0.16246,106.46344028186809,29.58266513392453
2925,283734760,2272,1690354116.76,5,27,1,0.0,29.580047471788195,106.46738389756943,232.818,-12.502,-13.961,0.079,2.688,-0.07,222.018,-0.760943643431422,0.451966526716164,0.039997037762491,0.053,0.51,9.71,50,50,81,128,260,163,0.1,0.1,0.1,-2.8e-05,0.008451,0.003311,-0.010093,0.021189,0.913364,-0.406466,18.578125,18.5625,18.578125,18.671875,1.0067,1.0067,3222.76,298294,1,0,0,0,0,0,0,0,18.740585,18.597656,0.142929,106.46344082608859,29.5826599829448
2926,283734770,2272,1690354116.77,5,27,1,0.0,29.58004828559028,106.4673787434896,232.818,-12.505,-13.949,0.079,2.689,-0.065,222.018,0.09999259440623,0.390971044128363,0.041996889650616,0.101,0.683,9.556,50,50,81,118,210,138,0.1,0.1,0.1,-2.8e-05,0.008451,0.003311,-0.010061,0.021212,0.913366,-0.406462,18.578125,18.5625,18.578125,18.671875,1.0067,1.0067,3222.77,298295,1,0,0,0,0,0,0,0,18.73365,18.597656,0.135993,106.46343565893226,29.58266078319023
2927,283734780,2272,1690354116.78,5,27,1,0.0,29.58004828559028,106.46737928602433,232.818,-12.505,-13.949,0.079,2.68,-0.063,222.019,-0.969928165740445,0.206984670420897,0.01799866699312,0.223,0.474,9.757,50,50,81,118,210,138,0.1,0.1,0.1,-2.8e-05,0.008451,0.003311,-0.01001,0.021143,0.913368,-0.406461,18.578125,18.5625,18.578125,18.671875,1.0067,1.0067,3222.78,298296,1,0,0,0,0,0,0,0,18.73365,18.597656,0.135993,106.4634362028382,29.58266078458894
2928,283734790,2272,1690354116.79,5,27,1,0.0,29.58004801432292,106.4673787434896,232.818,-12.505,-13.949,0.079,2.676,-0.056,222.018,-0.364972969582746,0.694948531123306,-0.053996000979366,0.129,0.274,9.456,50,50,81,118,210,138,0.1,0.1,0.1,-2.8e-05,0.008451,0.003311,-0.009942,0.021139,0.913368,-0.406465,18.59375,18.578125,18.59375,18.65625,1.0067,1.0067,3222.79,298297,1,0,0,0,0,0,0,0,18.73365,18.605469,0.128181,106.46343565894881,29.582660512012417
2929,283734800,2272,1690354116.8,5,27,1,0.0,29.580043131510415,106.4673744032118,232.818,-12.505,-13.949,0.079,2.682,-0.055,222.019,0.627953492871131,0.063995260419987,0.011999111328746,0.119,0.324,9.585,50,50,81,118,210,138,0.1,0.1,0.1,-2.8e-05,0.008451,0.003311,-0.009955,0.021192,0.913367,-0.406463,18.59375,18.578125,18.59375,18.65625,1.0067,1.0067,3222.8,298298,1,0,0,0,0,0,0,0,18.73365,18.605469,0.128181,106.46343130799958,29.582655619622376
2930,283734810,2272,1690354116.81,5,27,1,0.0,29.58004286024305,106.46737386067709,232.818,-12.505,-13.949,0.079,2.684,-0.056,222.018,0.148988965665283,-0.068994890140301,-0.002999777832188,0.16,0.527,9.836,50,50,81,118,210,138,0.1,0.1,0.1,-2.8e-05,0.008451,0.003311,-0.009965,0.0212,0.913366,-0.406465,18.59375,18.578125,18.59375,18.65625,1.0067,1.0067,3222.81,298299,1,0,0,0,0,0,0,0,18.73365,18.605469,0.128181,106.46343076411027,29.58265534704592
2931,283734820,2272,1690354116.82,5,27,1,0.0,29.58004286024305,106.46737331814236,232.818,-12.505,-13.949,0.079,2.683,-0.051,222.02,-0.088993409021547,0.467965341821161,0.100992520350292,0.042,0.355,9.608,50,50,81,118,210,138,0.1,0.1,0.1,-2.8e-05,0.008451,0.003311,-0.009924,0.02121,0.91337,-0.406456,18.59375,18.578125,18.59375,18.640625,1.0067,1.0067,3222.82,298300,1,0,0,0,0,0,0,0,18.73365,18.601562,0.132087,106.46343022020443,29.58265534564729
2932,283734830,2272,1690354116.83,5,27,1,0.0,29.580042588975694,106.46737386067709,232.818,-12.505,-13.949,0.079,2.683,-0.045,222.02,0.070994742028423,0.632953122591443,0.046996519370927,0.151,0.469,9.337,50,50,82,118,210,138,0.1,0.1,0.1,-2.8e-05,0.008451,0.003311,-0.009875,0.021239,0.913372,-0.406451,18.59375,18.578125,18.59375,18.640625,1.0067,1.0067,3222.83,298301,1,0,0,0,0,0,0,0,18.73365,18.601562,0.132087,106.46343076412683,29.58265507586811
2933,283734840,2272,1690354116.84,5,27,1,0.0,29.580042588975694,106.46736870659721,232.817,-12.505,-13.949,0.079,2.685,-0.046,222.021,0.160988076994031,-0.121990965175604,0.044996667482803,0.101,0.446,9.083,50,50,82,118,210,138,0.1,0.1,0.1,-2.8e-05,0.008451,0.003311,-0.00989,0.021248,0.913373,-0.406448,18.59375,18.59375,18.59375,18.65625,1.0067,1.0067,3222.84,298302,1,0,0,0,0,0,0,0,18.73365,18.609375,0.124275,106.46342559702158,29.582655062581424
2934,283734850,2272,1690354116.85,5,27,1,0.0,29.580037434895832,106.46736897786458,232.817,-12.505,-13.949,0.079,2.686,-0.05,222.021,0.143989335944972,-0.407969785177425,0.088993409021544,0.044,0.458,9.117,50,50,82,118,210,138,0.1,0.1,0.1,-2.8e-05,0.008451,0.003311,-0.009925,0.021246,0.913375,-0.406442,18.59375,18.59375,18.59375,18.65625,1.0067,1.0067,3222.85,298303,1,0,0,0,0,0,0,0,18.73365,18.609375,0.124275,106.46342586928898,29.582649910902266
2935,283734860,2272,1690354116.86,5,27,1,0.0,29.58003824869792,106.46736870659721,232.816,-12.505,-13.949,0.079,2.686,-0.057,222.022,0.032997556154055,-0.815939570354849,0.141989484056847,0.102,0.516,9.097,50,50,81,118,210,138,0.1,0.1,0.1,-2.8e-05,0.008451,0.003311,-0.00998,0.021218,0.913379,-0.406433,18.59375,18.59375,18.59375,18.65625,1.0067,1.0067,3222.86,298304,1,0,0,0,0,0,0,0,18.73365,18.609375,0.124275,106.46342559728643,29.582650723736425
2936,283734870,2272,1690354116.87,5,27,1,0.0,29.58003824869792,106.46736436631944,232.816,-12.526,-13.911,0.055,2.683,-0.071,222.023,-0.289978523778072,-1.413895284904112,0.106992076014666,0.128,0.429,9.592,50,50,81,133,217,147,0.1,0.1,0.1,-2.8e-05,0.008451,0.003311,-0.010083,0.021145,0.913382,-0.406428,18.609375,18.578125,18.609375,18.6875,1.0067,1.0067,3222.87,298305,1,0,0,0,0,0,0,0,18.719418,18.621094,0.098324,106.4634212460405,29.582650712548162
2937,283734880,2272,1690354116.88,5,27,1,0.0,29.58003797743056,106.46736409505208,232.815,-12.526,-13.911,0.055,2.68,-0.084,222.023,-0.302977561050882,-1.393896766022865,0.153988595385595,0.127,0.477,9.937,50,50,81,133,217,147,0.1,0.1,0.1,-2.8e-05,0.008451,0.003311,-0.01018,0.021073,0.913387,-0.406419,18.609375,18.578125,18.609375,18.6875,1.0067,1.0067,3222.88,298306,1,0,0,0,0,0,0,0,18.719418,18.621094,0.098324,106.4634209741042,29.5826504406711
2938,283734890,2272,1690354116.89,5,27,1,0.0,29.58003282335069,106.46736436631944,232.815,-12.526,-13.911,0.055,2.674,-0.097,222.024,-0.673950086298,-1.254907059798204,0.115991409511227,0.072,0.533,10.169,50,50,81,133,217,147,0.1,0.1,0.1,-2.8e-05,0.008451,0.003311,-0.010256,0.020975,0.913391,-0.406413,18.609375,18.59375,18.609375,18.671875,1.0067,1.0067,3222.89,298307,1,0,0,0,0,0,0,0,18.719418,18.621094,0.098324,106.46342124637157,29.582645288991934
2939,283734900,2272,1690354116.9,5,27,1,0.0,29.58003282335069,106.46736409505208,232.814,-12.526,-13.911,0.055,2.668,-0.101,222.025,-0.577957195668018,-0.399970377624926,0.08699355713342,0.059,0.523,9.711,50,50,82,133,217,147,0.1,0.1,0.1,-2.8e-05,0.008451,0.003311,-0.010264,0.020916,0.913395,-0.406407,18.609375,18.59375,18.609375,18.671875,1.0067,1.0067,3222.9,298308,1,0,0,0,0,0,0,0,18.719418,18.621094,0.098324,106.46342097441871,29.582645288292685
2940,283734910,2272,1690354116.91,5,27,1,0.0,29.58003255208333,106.46735948350693,232.814,-12.526,-13.911,0.055,2.66,-0.11,222.025,-0.801940607137976,-0.959928906299822,0.126990594895912,0.061,0.658,9.671,50,50,82,133,217,147,0.1,0.1,0.1,-2.8e-05,0.008451,0.003311,-0.01031,0.020817,0.913399,-0.406401,18.609375,18.59375,18.609375,18.671875,1.0067,1.0067,3222.91,298309,1,0,0,0,0,0,0,0,18.719418,18.621094,0.098324,106.46341635123706,29.582645005227906
2941,283734920,2272,1690354116.92,5,27,1,0.0,29.58003255208333,106.4673589409722,232.813,-12.526,-13.911,0.055,2.644,-0.122,222.026,-1.58588254728283,-1.138915650286976,0.155988447273719,0.139,0.616,9.708,50,50,82,133,217,147,0.1,0.1,0.1,-2.8e-05,0.008451,0.003311,-0.010345,0.020651,0.913407,-0.406392,18.609375,18.640625,18.609375,18.65625,1.0067,1.0067,3222.92,298310,1,0,0,0,0,0,0,0,18.719418,18.628906,0.090511,106.46341580733143,29.582645003829477
2942,283734930,2272,1690354116.93,5,27,1,0.0,29.58003255208333,106.46735866970486,232.813,-12.526,-13.911,0.055,2.628,-0.131,222.027,-1.523887138750966,-0.990926610565753,0.092993112797794,0.229,0.263,9.849,50,50,82,133,217,147,0.1,0.1,0.1,-2.8e-05,0.008451,0.003311,-0.010367,0.020495,0.913412,-0.406388,18.609375,18.640625,18.609375,18.65625,1.0067,1.0067,3222.93,298311,1,0,0,0,0,0,0,0,18.719418,18.628906,0.090511,106.46341553537864,29.582645003130263
2943,283734940,2272,1690354116.94,5,27,1,0.0,29.580028483072915,106.46735405815971,232.812,-12.526,-13.911,0.055,2.626,-0.146,222.028,-0.268980078952764,-1.467891285883477,0.156988373217782,0.172,0.351,9.805,50,50,82,133,217,147,0.1,0.1,0.1,-2.8e-05,0.008451,0.003311,-0.010475,0.020422,0.913416,-0.406378,18.609375,18.640625,18.609375,18.65625,1.0067,1.0067,3222.94,298312,1,0,0,0,0,0,0,0,18.719418,18.628906,0.090511,106.46341091242945,29.582640923576797
2944,283734950,2272,1690354116.95,5,27,1,0.0,29.580027940538194,106.46735378689236,232.812,-12.526,-13.911,0.055,2.619,-0.164,222.029,-0.691948753291122,-1.812865736584975,0.218983781749645,0.048,0.608,10.199,50,50,82,133,217,147,0.1,0.1,0.1,-2.8e-05,0.008451,0.003311,-0.010595,0.020303,0.913424,-0.406365,18.625,18.609375,18.625,18.671875,1.0067,1.0067,3222.95,298313,1,0,0,0,0,0,0,0,18.719418,18.632812,0.086605,106.46341064050979,29.582640380522
2945,283734960,2272,1690354116.96,5,27,1,0.0,29.580027940538194,106.46735432942708,232.811,-12.526,-13.911,0.055,2.607,-0.176,222.031,-1.149914835671661,-1.285904764064136,0.235982522798704,0.05,0.439,10.05,50,50,81,133,217,147,0.1,0.1,0.1,-2.8e-05,0.008451,0.003311,-0.010648,0.020164,0.913433,-0.40635,18.625,18.609375,18.625,18.671875,1.0067,1.0067,3222.96,298314,1,0,0,0,0,0,0,0,18.719418,18.632812,0.086605,106.46341118441534,29.58264038192036
2946,283734970,2272,1690354116.97,5,27,1,0.0,29.580027940538194,106.46735405815971,232.811,-12.536,-13.913,-0.007,2.6,-0.184,222.033,-0.669950382521751,-0.790941421753291,0.241982078463078,0.071,0.563,9.688,50,50,82,125,249,159,0.1,0.1,0.1,-2.8e-05,0.008451,0.003311,-0.010688,0.020083,0.913441,-0.406333,18.625,18.609375,18.625,18.671875,1.0067,1.0067,3222.97,298315,1,0,0,0,0,0,0,0,18.727596,18.632812,0.094784,106.46341091246256,29.58264038122118
2947,283734980,2272,1690354116.98,5,27,1,0.0,29.580022786458333,106.46734944661456,232.811,-12.536,-13.913,-0.007,2.587,-0.2,222.034,-1.32690172777069,-1.549885213296586,0.175986966154966,0.133,0.581,9.6,50,50,82,125,249,159,0.1,0.1,0.1,-2.8e-05,0.008451,0.003311,-0.010765,0.019922,0.913449,-0.406323,18.640625,18.609375,18.640625,18.6875,1.0067,1.0067,3222.98,298316,1,0,0,0,0,0,0,0,18.727596,18.644531,0.083065,106.46340628958019,29.58263521695705
2948,283734990,2272,1690354116.99,5,27,1,0.0,29.580022786458333,106.46734890407984,232.81,-12.536,-13.913,-0.007,2.576,-0.22,222.035,-1.141915428119163,-2.098844556586796,0.254981115735888,0.131,0.338,9.598,50,50,82,125,249,159,0.1,0.1,0.1,-2.8e-05,0.008451,0.003311,-0.010888,0.019758,0.913457,-0.406308,18.640625,18.609375,18.640625,18.6875,1.0067,1.0067,3222.99,298317,1,0,0,0,0,0,0,0,18.727596,18.644531,0.083065,106.4634057456747,29.58263521555876
2949,283735000,2272,1690354117.0,5,27,1,0.0,29.58002251519097,106.46734944661456,232.81,-12.536,-13.913,-0.007,2.574,-0.25,222.036,-0.200985114756526,-2.949781534983824,0.231982819022455,0.12,0.444,10.066,50,50,82,125,249,159,0.1,0.1,0.1,-2.8e-05,0.008451,0.003311,-0.011116,0.019637,0.913463,-0.406295,18.640625,18.609375,18.640625,18.6875,1.0067,1.0067,3223.0,298318,1,0,0,0,0,0,0,0,18.727596,18.644531,0.083065,106.46340628959673,29.582634945779244
2950,283735010,2272,1690354117.01,5,27,1,0.0,29.58002332899305,106.46734402126737,232.81,-12.536,-13.913,-0.007,2.564,-0.281,222.038,-0.944930017138887,-3.115769241698168,0.343974524757434,0.265,0.661,10.547,50,50,82,125,249,159,0.1,0.1,0.1,-2.8e-05,0.008451,0.003311,-0.01133,0.019451,0.913473,-0.406275,18.65625,18.65625,18.65625,18.703125,1.0067,1.0067,3223.01,298319,1,0,0,0,0,0,0,0,18.727596,18.667969,0.059628,106.46340085049273,29.582635745330087
2951,283735020,2272,1690354117.02,5,27,1,0.0,29.5800181749132,106.46734375,232.81,-12.536,-13.913,-0.007,2.555,-0.305,222.04,-0.87693505294265,-2.470817007777976,0.31197689454744,0.297,0.661,10.334,50,50,82,125,249,159,0.1,0.1,0.1,-2.8e-05,0.008451,0.003311,-0.011492,0.019295,0.913483,-0.406255,18.65625,18.65625,18.65625,18.703125,1.0067,1.0067,3223.02,298320,1,0,0,0,0,0,0,0,18.727596,18.667969,0.059628,106.46340057885453,29.58263059225267
2952,283735030,2272,1690354117.03,5,27,1,0.0,29.5800181749132,106.46734429253472,232.809,-12.536,-13.913,-0.007,2.542,-0.321,222.042,-1.305903282945382,-1.618880103436886,0.292978301610256,0.349,0.575,9.998,50,50,82,125,249,159,0.1,0.1,0.1,-2.8e-05,0.008451,0.003311,-0.011575,0.019133,0.913494,-0.406236,18.640625,18.640625,18.640625,18.703125,1.0067,1.0067,3223.03,298321,1,0,0,0,0,0,0,0,18.727596,18.65625,0.071346,106.46340112275993,29.58263059365089
2953,283735040,2272,1690354117.04,5,27,1,0.0,29.58001790364583,106.46734375,232.809,-12.536,-13.913,-0.007,2.526,-0.335,222.043,-1.570883658121895,-1.446892841058168,0.12599066895185,0.409,0.442,10.25,50,50,83,125,249,159,0.1,0.1,0.1,-2.8e-05,0.008451,0.003311,-0.011631,0.018958,0.9135,-0.406231,18.640625,18.640625,18.640625,18.703125,1.0067,1.0067,3223.04,298322,1,0,0,0,0,0,0,0,18.727596,18.65625,0.071346,106.46340057887109,29.58263032107486
2954,283735050,2272,1690354117.05,5,27,1,0.0,29.58001790364583,106.46733940972221,232.809,-12.536,-13.913,-0.007,2.524,-0.354,222.044,-0.194985559092152,-1.832864255466221,0.185986225595589,0.434,0.332,10.255,50,50,83,125,249,159,0.1,0.1,0.1,-2.8e-05,0.008451,0.003311,-0.01177,0.018878,0.913505,-0.406219,18.640625,18.640625,18.640625,18.703125,1.0067,1.0067,3223.05,298323,1,0,0,0,0,0,0,0,18.727596,18.65625,0.071346,106.46339622762822,29.582630309889375
2955,283735060,2272,1690354117.06,5,27,1,0.0,29.58001763237847,106.46733886718748,232.809,-12.536,-13.913,-0.007,2.528,-0.372,222.045,0.391970970072425,-1.857862404067778,0.143989335944972,0.407,0.541,10.681,50,50,82,125,249,159,0.1,0.1,0.1,-2.8e-05,0.008451,0.003311,-0.011926,0.018843,0.913507,-0.406211,18.640625,18.609375,18.640625,18.703125,1.0067,1.0067,3223.06,298324,1,0,0,0,0,0,0,0,18.727596,18.648438,0.079159,106.46339568373944,29.582630037313418
2956,283735070,2272,1690354117.07,5,37,1,0.0,29.58001247829861,106.46733940972221,232.809,-12.536,-13.913,-0.007,2.528,-0.386,222.046,0.009999259440622,-1.485889952876598,0.173987114266841,0.431,0.591,10.828,50,50,82,125,249,159,0.1,0.1,0.1,-2.8e-05,0.008451,0.003311,-0.012043,0.018792,0.913511,-0.4062,18.640625,18.609375,18.640625,18.703125,1.0067,1.0067,3223.07,298325,1,0,0,0,0,0,0,0,18.727596,18.648438,0.079159,106.46339622795928,29.58262488633329
2957,283735080,2272,1690354117.08,5,37,1,0.0,29.58001329210069,106.467333984375,232.81,-12.536,-13.913,-0.007,2.524,-0.391,222.047,-0.364972969582746,-0.451966526716167,0.158988225105906,0.516,0.492,10.524,50,50,82,125,249,159,0.1,0.1,0.1,-2.8e-05,0.008451,0.003311,-0.012066,0.018747,0.913517,-0.406189,18.640625,18.625,18.640625,18.71875,1.0067,1.0067,3223.08,298326,1,0,0,0,0,0,0,0,18.727596,18.65625,0.071346,106.4633907888568,29.582625685885517
2958,283735090,2272,1690354117.09,5,37,1,0.0,29.58001329210069,106.46733425564236,232.81,-12.536,-13.913,-0.007,2.521,-0.392,222.049,-0.357973487974309,-0.177986818043093,0.244981856295265,0.346,0.554,10.192,50,50,82,125,249,159,0.1,0.1,0.1,-2.8e-05,0.008451,0.003311,-0.012065,0.018713,0.913526,-0.40617,18.640625,18.625,18.640625,18.71875,1.0067,1.0067,3223.09,298327,1,0,0,0,0,0,0,0,18.727596,18.65625,0.071346,106.46339106080941,29.58262568658456
2959,283735100,2272,1690354117.1,5,37,1,0.0,29.58001329210069,106.467333984375,232.81,-12.536,-13.913,-0.007,2.514,-0.397,222.051,-0.730945865109552,-0.412969414897737,0.161988002938093,0.466,0.26,10.209,50,50,82,125,249,159,0.1,0.1,0.1,-2.8e-05,0.008451,0.003311,-0.012072,0.018641,0.913532,-0.406159,18.640625,18.625,18.640625,18.71875,1.0067,1.0067,3223.1,298328,1,0,0,0,0,0,0,0,18.727596,18.65625,0.071346,106.4633907888568,29.582625685885517
2960,283735110,2272,1690354117.11,5,37,1,0.0,29.580007866753476,106.46733371310764,232.811,-12.536,-13.913,-0.007,2.519,-0.402,222.052,0.532960528185211,-0.540959935737713,0.144989261889034,0.371,0.5,10.787,50,50,82,125,249,159,0.1,0.1,0.1,-2.8e-05,0.008451,0.003311,-0.012132,0.018663,0.913536,-0.406149,18.65625,18.609375,18.65625,18.75,1.0067,1.0067,3223.11,298329,1,0,0,0,0,0,0,0,18.727596,18.667969,0.059628,106.46339051723524,29.58262026163043
2961,283735120,2272,1690354117.12,5,37,1,0.0,29.580007866753476,106.46732937282987,232.811,-12.536,-13.913,-0.007,2.522,-0.407,222.053,0.299977783218692,-0.605955122101763,0.150988817553408,0.369,0.501,10.931,50,50,83,125,249,159,0.1,0.1,0.1,-2.8e-05,0.008451,0.003311,-0.012187,0.018667,0.91354,-0.406137,18.65625,18.609375,18.65625,18.75,1.0067,1.0067,3223.12,298330,1,0,0,0,0,0,0,0,18.727596,18.667969,0.059628,106.46338616599363,29.582620250446062
2962,283735130,2272,1690354117.13,5,37,1,0.0,29.580007866753476,106.46732883029514,232.812,-12.536,-13.913,-0.007,2.526,-0.41,222.055,0.376972080911491,-0.295978079442446,0.160988076994031,0.434,0.719,10.839,50,50,83,125,249,159,0.1,0.1,0.1,-2.8e-05,0.008451,0.003311,-0.012224,0.018687,0.913545,-0.406125,18.671875,18.640625,18.671875,18.75,1.0067,1.0067,3223.13,298331,1,0,0,0,0,0,0,0,18.727596,18.683594,0.044003,106.46338562208845,29.582620249048052
2963,283735140,2272,1690354117.14,5,37,1,0.0,29.580007595486112,106.46732937282987,232.813,-12.536,-13.913,-0.007,2.519,-0.407,222.056,-0.638952678255819,0.309977042659316,0.08699355713342,0.401,0.51,10.647,50,50,83,125,249,159,0.1,0.1,0.1,-2.8e-05,0.008451,0.003311,-0.012173,0.018648,0.913549,-0.406118,18.671875,18.640625,18.671875,18.75,1.0067,1.0067,3223.14,298332,1,0,0,0,0,0,0,0,18.727596,18.683594,0.044003,106.46338616601018,29.58261997926826
2964,283735150,2272,1690354117.15,5,37,1,0.0,29.580007595486112,106.46732367621529,232.813,-12.536,-13.913,-0.007,2.51,-0.403,222.056,-0.875935126998587,0.357973487974307,0.019998518881245,0.483,0.474,10.668,50,50,83,125,249,159,0.1,0.1,0.1,-2.8e-05,0.008451,0.003311,-0.012114,0.018592,0.913551,-0.406117,18.671875,18.640625,18.671875,18.75,1.0067,1.0067,3223.15,298333,1,0,0,0,0,0,0,0,18.727596,18.683594,0.044003,106.46338045500634,29.582619964589508
2965,283735160,2272,1690354117.16,5,37,1,0.0,29.58000325520833,106.46732449001736,232.814,-12.536,-13.913,-0.007,2.503,-0.399,222.057,-0.682949419794561,0.403970081401173,0.07399451986061,0.49,0.424,10.322,50,50,82,125,249,159,0.1,0.1,0.1,-2.8e-05,0.008451,0.003311,-0.012049,0.018549,0.913555,-0.406112,18.65625,18.6875,18.65625,18.6875,1.0067,1.0067,3223.16,298334,1,0,0,0,0,0,0,0,18.727596,18.671875,0.055721,106.46338127112882,29.582615627841598
2966,283735170,2272,1690354117.17,5,37,1,0.0,29.58000325520833,106.46732394748264,232.815,-12.57,-13.955,-0.02,2.497,-0.39,222.058,-0.579957047556143,0.896933571823893,0.08699355713342,0.436,0.372,10.299,50,50,82,126,192,133,0.1,0.1,0.1,-2.8e-05,0.008451,0.003311,-0.011957,0.018535,0.91356,-0.406104,18.65625,18.6875,18.65625,18.6875,1.0067,1.0067,3223.17,298335,1,0,0,0,0,0,0,0,18.781558,18.671875,0.109683,106.46338072722374,29.582615626443655
2967,283735180,2272,1690354117.18,5,37,1,0.0,29.580002983940968,106.46732367621529,232.816,-12.57,-13.955,-0.02,2.487,-0.378,222.059,-1.039922981824807,1.164913724832593,0.03499740804218,0.376,0.495,10.415,50,50,83,126,192,133,0.1,0.1,0.1,-2.8e-05,0.008451,0.003311,-0.011828,0.018493,0.913564,-0.406101,18.65625,18.6875,18.65625,18.6875,1.0067,1.0067,3223.18,298336,1,0,0,0,0,0,0,0,18.781558,18.671875,0.109683,106.46338045528776,29.582615354566887
2968,283735190,2272,1690354117.19,5,37,1,0.0,29.580002983940968,106.46731906467012,232.817,-12.57,-13.955,-0.02,2.481,-0.36,222.061,-0.573957491891769,1.790867365815601,0.123990817063725,0.576,0.449,9.829,50,50,83,126,192,133,0.1,0.1,0.1,-2.8e-05,0.008451,0.003311,-0.011665,0.018511,0.913571,-0.406089,18.671875,18.640625,18.671875,18.796875,1.0067,1.0067,3223.19,298337,1,0,0,0,0,0,0,0,18.781558,18.695312,0.086246,106.46337583209483,29.582615342684697
2969,283735200,2272,1690354117.2,5,37,1,0.0,29.579997558593753,106.46731879340278,232.818,-12.57,-13.955,-0.02,2.477,-0.342,222.063,-0.360973265806496,1.758869735605607,0.106992076014666,0.364,0.42,9.363,50,50,83,126,192,133,0.1,0.1,0.1,-2.8e-05,0.008451,0.003311,-0.011508,0.018546,0.913578,-0.406078,18.671875,18.640625,18.671875,18.796875,1.0067,1.0067,3223.2,298338,1,0,0,0,0,0,0,0,18.781558,18.695312,0.086246,106.46337556047341,29.58260991842978
2970,283735210,2272,1690354117.21,5,37,1,0.0,29.579997558593753,106.4673193359375,232.819,-12.57,-13.955,-0.02,2.471,-0.339,222.064,-0.662950900913315,0.334975191260873,0.11299163167904,0.385,0.303,9.427,50,50,83,126,192,133,0.1,0.1,0.1,-2.8e-05,0.008451,0.003311,-0.011457,0.018504,0.913582,-0.40607,18.671875,18.640625,18.671875,18.796875,1.0067,1.0067,3223.21,298339,1,0,0,0,0,0,0,0,18.781558,18.695312,0.086246,106.46337610437843,29.582609919827654
2971,283735220,2272,1690354117.22,5,37,1,0.0,29.579998372395835,106.46731363932292,232.82,-12.57,-13.955,-0.02,2.471,-0.338,222.065,0.080994001469046,0.085993631189358,0.161988002938093,0.409,0.366,9.873,50,50,83,126,192,133,0.1,0.1,0.1,-2.8e-05,0.008451,0.003311,-0.011453,0.018514,0.913588,-0.406057,18.6875,18.640625,18.6875,18.8125,1.0067,1.0067,3223.22,298340,1,0,0,0,0,0,0,0,18.781558,18.707031,0.074527,106.46337039332656,29.582610718683764
2972,283735230,2272,1690354117.23,5,37,1,0.0,29.579998372395835,106.467314453125,232.821,-12.57,-13.955,-0.02,2.476,-0.333,222.067,0.492963490422719,0.489963712590532,0.095992890629981,0.433,0.331,9.317,50,50,83,126,192,133,0.1,0.1,0.1,-2.8e-05,0.008451,0.003311,-0.011428,0.018572,0.913591,-0.406049,18.6875,18.640625,18.6875,18.8125,1.0067,1.0067,3223.23,298341,1,0,0,0,0,0,0,0,18.781558,18.707031,0.074527,106.46337120918395,29.58261072078047
2973,283735240,2272,1690354117.24,5,37,1,0.0,29.579993218315973,106.46731363932292,232.822,-12.57,-13.955,-0.02,2.486,-0.329,222.068,0.922931646369513,0.351973932309933,0.105992150070604,0.37,0.481,9.474,50,50,83,126,192,133,0.1,0.1,0.1,-2.8e-05,0.008451,0.003311,-0.011433,0.018658,0.913594,-0.406039,18.703125,18.671875,18.703125,18.796875,1.0067,1.0067,3223.24,298342,1,0,0,0,0,0,0,0,18.781558,18.71875,0.062808,106.46337039364107,29.582605566305606
2974,283735250,2272,1690354117.25,5,37,1,0.0,29.579992947048613,106.46730929904514,232.823,-12.57,-13.955,-0.02,2.485,-0.328,222.068,-0.036997259930307,0.067994964196236,0.013998963216871,0.514,0.422,9.645,50,50,83,126,192,133,0.1,0.1,0.1,-2.8e-05,0.008451,0.003311,-0.011423,0.018659,0.913594,-0.406038,18.703125,18.671875,18.703125,18.796875,1.0067,1.0067,3223.25,298343,1,0,0,0,0,0,0,0,18.781558,18.71875,0.062808,106.46336604241846,29.582605283945675
2975,283735260,2272,1690354117.26,5,37,1,0.0,29.579992947048613,106.46730902777776,232.824,-12.57,-13.955,-0.02,2.49,-0.328,222.069,0.539960009793648,-0.024998148601559,0.134990002448411,0.56,0.538,9.922,50,50,83,126,192,133,0.1,0.1,0.1,-2.8e-05,0.008451,0.003311,-0.011441,0.018698,0.913598,-0.406027,18.703125,18.671875,18.703125,18.796875,1.0067,1.0067,3223.26,298344,1,0,0,0,0,0,0,0,18.781558,18.71875,0.062808,106.46336577046601,29.582605283246806
2976,283735270,2272,1690354117.27,5,37,1,0.0,29.57999267578125,106.46730875651042,232.825,-12.589,-13.98,-0.101,2.487,-0.328,222.07,-0.276979486505262,-0.029997778321871,0.040996963706553,0.472,0.387,10.052,50,50,83,135,261,167,0.1,0.1,0.1,-2.8e-05,0.008451,0.003311,-0.011433,0.018675,0.9136,-0.406024,18.6875,18.703125,18.6875,18.796875,1.0067,1.0067,3223.27,298345,1,0,0,0,0,0,0,0,18.81285,18.71875,0.0941,106.46336549853015,29.58260501137014
2977,283735280,2272,1690354117.28,5,37,1,0.0,29.57999267578125,106.46730902777776,232.826,-12.589,-13.98,-0.101,2.485,-0.321,222.071,-0.227983115246209,0.753944161822982,0.105992150070604,0.517,0.315,9.789,50,50,83,135,261,167,0.1,0.1,0.1,-2.8e-05,0.008451,0.003311,-0.011363,0.018685,0.913605,-0.406015,18.6875,18.703125,18.6875,18.796875,1.0067,1.0067,3223.28,298346,1,0,0,0,0,0,0,0,18.81285,18.71875,0.0941,106.46336577048257,29.582605012069006
2978,283735290,2272,1690354117.29,5,37,1,0.0,29.57998752170139,106.46730360243056,232.827,-12.589,-13.98,-0.101,2.487,-0.309,222.072,0.221983559581832,1.153914539447908,0.045996593426865,0.429,0.441,10.044,50,50,83,135,261,167,0.1,0.1,0.1,-2.8e-05,0.008451,0.003311,-0.011279,0.018744,0.913607,-0.406009,18.6875,18.6875,18.6875,18.78125,1.0067,1.0067,3223.29,298347,1,0,0,0,0,0,0,0,18.81285,18.710938,0.101912,106.46336033174894,29.58259984571394
2979,283735300,2272,1690354117.3,5,37,1,0.0,29.579988335503472,106.46730414496528,232.828,-12.589,-13.98,-0.101,2.489,-0.295,222.073,0.111991705734978,1.384897432526302,0.085993631189358,0.509,0.553,9.795,50,50,83,135,261,167,0.1,0.1,0.1,-2.8e-05,0.008451,0.003311,-0.011172,0.018802,0.913611,-0.406,18.6875,18.6875,18.6875,18.78125,1.0067,1.0067,3223.3,298348,1,0,0,0,0,0,0,0,18.81285,18.710938,0.101912,106.46336087560407,29.582600660644985
2980,283735310,2272,1690354117.31,5,37,1,0.0,29.57998806423611,106.46730360243056,232.828,-12.589,-13.98,-0.101,2.484,-0.277,222.075,-0.464965563988977,1.835864033298405,0.089993334965607,0.461,0.547,9.731,50,50,83,135,261,167,0.1,0.1,0.1,-2.8e-05,0.008451,0.003311,-0.011008,0.018829,0.913616,-0.405992,18.6875,18.6875,18.6875,18.78125,1.0067,1.0067,3223.31,298349,1,0,0,0,0,0,0,0,18.81285,18.710938,0.101912,106.46336033171583,29.582600388069526
2981,283735320,2272,1690354117.32,5,37,1,0.0,29.57998806423611,106.46729926215276,232.829,-12.589,-13.98,-0.101,2.482,-0.262,222.076,-0.213984152029336,1.495889212317218,0.093993038741856,0.392,0.592,9.491,50,50,83,135,261,167,0.1,0.1,0.1,-2.8e-05,0.008451,0.003311,-0.010881,0.018865,0.913621,-0.405982,18.6875,18.6875,18.6875,18.796875,1.0067,1.0067,3223.32,298350,1,0,0,0,0,0,0,0,18.81285,18.714844,0.098006,106.4633559804779,29.582600376888514
2982,283735330,2272,1690354117.33,5,37,1,0.0,29.579982910156247,106.4672989908854,232.83,-12.589,-13.98,-0.101,2.47,-0.248,222.078,-1.184912243713842,1.331901357490999,0.067994964196236,0.507,0.35,9.398,50,50,84,135,261,167,0.1,0.1,0.1,-2.8e-05,0.008451,0.003311,-0.010731,0.018819,0.913627,-0.405976,18.6875,18.6875,18.6875,18.796875,1.0067,1.0067,3223.33,298351,1,0,0,0,0,0,0,0,18.81285,18.714844,0.098006,106.46335570884006,29.582595223811616
2983,283735340,2272,1690354117.34,5,37,1,0.0,29.579982910156247,106.46729926215276,232.831,-12.589,-13.98,-0.101,2.467,-0.232,222.08,-0.233982670910583,1.640878474206254,0.121990965175601,0.347,0.154,9.159,50,50,84,135,261,167,0.1,0.1,0.1,-2.8e-05,0.008451,0.003311,-0.010592,0.018859,0.913633,-0.405964,18.6875,18.6875,18.6875,18.796875,1.0067,1.0067,3223.34,298352,1,0,0,0,0,0,0,0,18.81285,18.714844,0.098006,106.46335598079241,29.582595224510413
2984,283735350,2272,1690354117.35,5,37,1,0.0,29.57998263888889,106.46729871961804,232.832,-12.589,-13.98,-0.101,2.475,-0.222,222.081,0.722946457557051,0.980927351125127,0.091993186853731,0.465,0.4,9.55,50,50,84,135,261,167,0.1,0.1,0.1,-2.8e-05,0.008451,0.003311,-0.010539,0.018951,0.913636,-0.405954,18.703125,18.671875,18.703125,18.84375,1.0067,1.0067,3223.35,298353,1,0,0,0,0,0,0,0,18.81285,18.730469,0.082381,106.46335543690427,29.582594951935032
2985,283735360,2272,1690354117.36,5,37,1,0.0,29.579983452690968,106.46729437934027,232.833,-12.589,-13.98,-0.101,2.472,-0.211,222.082,-0.263980449232452,1.120916983293851,0.07399451986061,0.377,0.431,9.926,50,50,83,135,261,167,0.1,0.1,0.1,-2.8e-05,0.008451,0.003311,-0.010436,0.018967,0.91364,-0.405947,18.703125,18.671875,18.703125,18.84375,1.0067,1.0067,3223.36,298354,1,0,0,0,0,0,0,0,18.81285,18.730469,0.082381,106.46335108561729,29.582595754287937
2986,283735370,2272,1690354117.37,5,37,1,0.0,29.579978298611113,106.46729410807292,232.834,-12.644,-14.058,-0.161,2.472,-0.188,222.085,0.03499740804218,2.306829152951754,0.163987854826218,0.4,0.395,9.354,50,50,83,142,253,166,0.1,0.1,0.1,-2.8e-05,0.008451,0.003311,-0.010253,0.019052,0.913648,-0.40593,18.71875,18.703125,18.71875,18.84375,1.0067,1.0067,3223.37,298355,1,0,0,0,0,0,0,0,18.90762,18.746094,0.161526,106.4633508139795,29.582590601211113
2987,283735380,2272,1690354117.38,5,37,1,0.0,29.579978298611113,106.46729383680557,232.835,-12.644,-14.058,-0.161,2.475,-0.171,222.087,0.2599807454562,1.625879585045319,0.159988151049969,0.402,0.526,9.696,50,50,83,142,253,166,0.1,0.1,0.1,-2.8e-05,0.008451,0.003311,-0.010131,0.019131,0.913654,-0.405915,18.71875,18.703125,18.71875,18.84375,1.0067,1.0067,3223.38,298356,1,0,0,0,0,0,0,0,18.90762,18.746094,0.161526,106.4633505420272,29.582590600512354
2988,283735390,2272,1690354117.39,5,37,1,0.0,29.579978298611113,106.46728895399306,232.835,-12.644,-14.058,-0.161,2.468,-0.152,222.088,-0.625953640983009,1.965854406026506,0.023998222657494,0.475,0.27,9.32,50,50,84,142,253,166,0.1,0.1,0.1,-2.8e-05,0.008451,0.003311,-0.009952,0.019151,0.913658,-0.40591,18.71875,18.75,18.71875,18.8125,1.0067,1.0067,3223.39,298357,1,0,0,0,0,0,0,0,18.90762,18.75,0.15762,106.46334564688591,29.58259058793497
2989,283735400,2272,1690354117.4,5,37,1,0.0,29.57997802734375,106.46728868272568,232.836,-12.644,-14.058,-0.161,2.486,-0.13,222.09,1.797866847424037,2.202836854769274,0.091993186853731,0.359,0.149,8.887,50,50,84,142,253,166,0.1,0.1,0.1,-2.8e-05,0.008451,0.003311,-0.00984,0.019373,0.91366,-0.405898,18.71875,18.75,18.71875,18.8125,1.0067,1.0067,3223.4,298358,1,0,0,0,0,0,0,0,18.90762,18.75,0.15762,106.46334537495017,29.58259031605845
2990,283735410,2272,1690354117.41,5,37,1,0.0,29.57997775607639,106.4672892252604,232.837,-12.644,-14.058,-0.161,2.499,-0.118,222.091,1.300903653225068,1.198911206930712,0.077994223636859,0.29,0.52,9.136,50,50,84,142,253,166,0.1,0.1,0.1,-2.8e-05,0.008451,0.003311,-0.00979,0.019518,0.913661,-0.40589,18.71875,18.75,18.71875,18.8125,1.0067,1.0067,3223.41,298359,1,0,0,0,0,0,0,0,18.90762,18.75,0.15762,106.46334591887127,29.58259004627811
2991,283735420,2272,1690354117.42,5,37,1,0.0,29.579972601996527,106.46728868272568,232.838,-12.644,-14.058,-0.161,2.505,-0.106,222.092,0.562958306507081,1.127916464902287,0.093993038741856,0.369,0.483,9.067,50,50,84,142,253,166,0.1,0.1,0.1,-2.8e-05,0.008451,0.003311,-0.00972,0.019603,0.913664,-0.40588,18.75,18.71875,18.75,18.859375,1.0067,1.0067,3223.42,298360,1,0,0,0,0,0,0,0,18.90762,18.769531,0.138089,106.46334537528125,29.582584892502627
2992,283735430,2272,1690354117.43,5,37,1,0.0,29.579972601996527,106.46728434244793,232.838,-12.644,-14.058,-0.161,2.515,-0.092,222.094,1.02092438888762,1.415895136792233,0.137989780280598,0.46,0.416,8.964,50,50,84,142,253,166,0.1,0.1,0.1,-2.8e-05,0.008451,0.003311,-0.009642,0.019735,0.913669,-0.405866,18.75,18.71875,18.75,18.859375,1.0067,1.0067,3223.43,298361,1,0,0,0,0,0,0,0,18.90762,18.769531,0.138089,106.46334102404518,29.582584881323275
2993,283735440,2272,1690354117.44,5,37,1,0.0,29.57997341579861,106.46728407118056,232.839,-12.644,-14.058,-0.161,2.521,-0.085,222.096,0.59295608482895,0.740945124550172,0.162987928882156,0.403,0.467,8.901,50,50,84,142,253,166,0.1,0.1,0.1,-2.8e-05,0.008451,0.003311,-0.009604,0.019809,0.913674,-0.405851,18.75,18.75,18.75,18.875,1.0067,1.0067,3223.44,298362,1,0,0,0,0,0,0,0,18.90762,18.78125,0.12637,106.46334075204328,29.582585694157952
2994,283735450,2272,1690354117.45,5,37,1,0.0,29.579973144531248,106.46728434244793,232.839,-12.644,-14.058,-0.161,2.521,-0.079,222.097,-0.019998518881248,0.516961713080214,0.021998370769369,0.292,0.451,8.898,50,50,84,142,253,166,0.1,0.1,0.1,-2.8e-05,0.008451,0.003311,-0.009558,0.019827,0.913675,-0.405849,18.75,18.75,18.75,18.875,1.0067,1.0067,3223.45,298363,1,0,0,0,0,0,0,0,18.90762,18.78125,0.12637,106.46334102401207,29.582585423678854
2995,283735460,2272,1690354117.46,5,37,1,0.0,29.57996826171875,106.46727918836804,232.839,-12.644,-14.058,-0.161,2.526,-0.071,222.099,0.595955862661137,0.810939940634534,0.13898970622466,0.216,0.231,8.752,50,50,84,142,253,166,0.1,0.1,0.1,-2.8e-05,0.008451,0.003311,-0.009511,0.019897,0.91368,-0.405835,18.75,18.75,18.75,18.875,1.0067,1.0067,3223.46,298364,1,0,0,0,0,0,0,0,18.90762,18.78125,0.12637,106.46333585721786,29.582580529203792
2996,283735470,2272,1690354117.47,5,37,1,0.0,29.579967990451394,106.46727945963542,232.839,-12.692,-14.106,-0.168,2.534,-0.069,222.1,0.836938015180154,0.23398267091058,0.096992816574043,0.219,0.608,8.905,50,50,84,132,208,142,0.1,0.1,0.1,-2.8e-05,0.008451,0.003311,-0.009522,0.019972,0.913682,-0.405827,18.765625,18.765625,18.765625,18.875,1.0067,1.0067,3223.47,298365,1,0,0,0,0,0,0,0,18.975408,18.792969,0.182439,106.46333612918663,29.58258025872467
2997,283735480,2272,1690354117.48,5,37,1,0.0,29.579967990451394,106.46727918836804,232.84,-12.692,-14.106,-0.168,2.531,-0.065,222.1,-0.313976746435568,0.292978301610256,0.054995926923426,0.413,0.583,8.906,50,50,84,132,208,142,0.1,0.1,0.1,-2.8e-05,0.008451,0.003311,-0.009485,0.019959,0.913684,-0.405823,18.765625,18.765625,18.765625,18.875,1.0067,1.0067,3223.48,298366,1,0,0,0,0,0,0,0,18.975408,18.792969,0.182439,106.46333585723441,29.582580258026006
2998,283735490,2272,1690354117.49,5,37,1,0.0,29.579967719184022,106.46727864583332,232.84,-12.692,-14.106,-0.168,2.531,-0.063,222.103,-0.052996075035304,0.266980227064636,0.215984003917458,0.419,0.46,8.535,50,50,84,132,208,142,0.1,0.1,0.1,-2.8e-05,0.008451,0.003311,-0.009462,0.019964,0.913693,-0.405805,18.78125,18.78125,18.78125,18.890625,1.0067,1.0067,3223.49,298367,1,0,0,0,0,0,0,0,18.975408,18.808594,0.166814,106.46333531334656,29.582579985450895
2999,283735500,2272,1690354117.5,5,37,1,0.0,29.579963650173607,106.4672740342882,232.84,-12.692,-14.106,-0.168,2.527,-0.077,222.103,-0.325975857764315,-1.413895284904112,0.150988817553408,0.325,0.388,8.941,50,50,84,132,208,142,0.1,0.1,0.1,-2.8e-05,0.008451,0.003311,-0.00956,0.019889,0.913697,-0.405796,18.78125,18.78125,18.78125,18.890625,1.0067,1.0067,3223.5,298368,1,0,0,0,0,0,0,0,18.975408,18.808594,0.166814,106.46333069040787,29.58257590590722
3000,283735510,2272,1690354117.51,5,37,1,0.0,29.57996337890625,106.46727376302081,232.84,-12.692,-14.106,-0.168,2.523,-0.093,222.105,-0.417969044618048,-1.644878177982506,0.265980301120574,0.336,0.267,9.292,50,50,84,132,208,142,0.1,0.1,0.1,-2.8e-05,0.008451,0.003311,-0.009676,0.019797,0.913705,-0.405779,18.78125,18.78125,18.78125,18.890625,1.0067,1.0067,3223.51,298369,1,0,0,0,0,0,0,0,18.975408,18.808594,0.166814,106.46333041847225,29.582575634030817
3001,283735520,2272,1690354117.52,5,37,1,0.0,29.57996337890625,106.4672740342882,232.84,-12.692,-14.106,-0.168,2.527,-0.105,222.106,0.359973339862431,-1.17091328049697,0.175986966154966,0.345,0.416,9.142,50,50,84,132,208,142,0.1,0.1,0.1,-2.8e-05,0.008451,0.003311,-0.009782,0.019784,0.91371,-0.405767,18.796875,18.8125,18.796875,18.875,1.0067,1.0067,3223.52,298370,1,0,0,0,0,0,0,0,18.975408,18.820312,0.155095,106.46333069042443,29.582575634729437
3002,283735530,2272,1690354117.53,5,37,1,0.0,29.57996337890625,106.46726888020832,232.839,-12.692,-14.106,-0.168,2.527,-0.123,222.108,-0.015998815104998,-1.799866699312164,0.205984744476835,0.402,0.458,9.302,50,50,84,132,208,142,0.1,0.1,0.1,-2.8e-05,0.008451,0.003311,-0.009924,0.01972,0.913716,-0.405754,18.796875,18.8125,18.796875,18.875,1.0067,1.0067,3223.53,298371,1,0,0,0,0,0,0,0,18.975408,18.820312,0.155095,106.46332552333376,29.582575621455952
3003,283735540,2272,1690354117.54,5,37,1,0.0,29.57996283637153,106.46726942274304,232.839,-12.692,-14.106,-0.168,2.521,-0.137,222.11,-0.576957269723956,-1.466891359939414,0.288978597834007,0.484,0.518,9.524,50,50,85,132,208,142,0.1,0.1,0.1,-2.8e-05,0.008451,0.003311,-0.010021,0.019622,0.913725,-0.405734,18.796875,18.8125,18.796875,18.875,1.0067,1.0067,3223.54,298372,1,0,0,0,0,0,0,0,18.975408,18.820312,0.155095,106.46332606727111,29.582575080497556
3004,283735550,2272,1690354117.55,5,37,1,0.0,29.579957953559028,106.46726888020832,232.839,-12.692,-14.106,-0.168,2.519,-0.147,222.112,-0.225983263358084,-0.947929794971074,0.242982004407141,0.332,0.385,9.44,50,50,85,132,208,142,0.1,0.1,0.1,-2.8e-05,0.008451,0.003311,-0.010089,0.01957,0.913734,-0.405716,18.8125,18.796875,18.8125,18.921875,1.0067,1.0067,3223.55,298373,1,0,0,0,0,0,0,0,18.975408,18.835938,0.13947,106.46332552366485,29.582570197900225
3005,283735560,2272,1690354117.56,5,37,1,0.0,29.579957682291667,106.46726453993055,232.839,-12.692,-14.106,-0.168,2.516,-0.163,222.113,-0.225983263358084,-1.617880177492824,0.197985336924337,0.274,0.343,9.509,50,50,84,132,208,142,0.1,0.1,0.1,-2.8e-05,0.008451,0.003311,-0.010204,0.019494,0.913739,-0.405704,18.8125,18.796875,18.8125,18.921875,1.0067,1.0067,3223.56,298374,1,0,0,0,0,0,0,0,18.975408,18.835938,0.13947,106.46332117244776,29.582569915545296
3006,283735570,2272,1690354117.57,5,37,1,0.0,29.579957682291667,106.46726399739585,232.838,-12.712,-14.133,-0.028,2.52,-0.182,222.115,0.374972229023366,-1.926857294208078,0.235982522798704,0.38,0.375,9.705,50,50,84,137,277,172,0.1,0.1,0.1,-2.8e-05,0.008451,0.003311,-0.010371,0.019456,0.913745,-0.405689,18.8125,18.796875,18.8125,18.921875,1.0067,1.0067,3223.57,298375,1,0,0,0,0,0,0,0,19.008857,18.835938,0.172919,106.4633206285436,29.582569914148188
3007,283735580,2272,1690354117.58,5,37,1,0.0,29.57995849609375,106.46726453993055,232.838,-12.712,-14.133,-0.028,2.528,-0.202,222.116,0.786941717977039,-1.962854628194321,0.227983115246206,0.443,0.651,9.924,50,50,84,137,277,172,0.1,0.1,0.1,-2.8e-05,0.008451,0.003311,-0.010555,0.01945,0.91375,-0.405673,18.828125,18.8125,18.828125,18.921875,1.0067,1.0067,3223.58,298376,1,0,0,0,0,0,0,0,19.008857,18.847656,0.1612,106.4633211723981,29.58257072907865
3008,283735590,2272,1690354117.59,5,37,1,0.0,29.579953342013887,106.46726399739585,232.838,-12.712,-14.133,-0.028,2.527,-0.218,222.117,-0.049996297203117,-1.694874475185622,0.221983559581832,0.43,0.476,9.788,50,50,85,137,277,172,0.1,0.1,0.1,-2.8e-05,0.008451,0.003311,-0.010687,0.019387,0.913756,-0.405659,18.828125,18.8125,18.828125,18.921875,1.0067,1.0067,3223.59,298377,1,0,0,0,0,0,0,0,19.008857,18.847656,0.1612,106.46332062880846,29.582565575303633
3009,283735600,2272,1690354117.6,5,37,1,0.0,29.579953070746527,106.46725938585068,232.838,-12.712,-14.133,-0.028,2.528,-0.234,222.119,0.078994149580921,-1.575883287842206,0.183986373707464,0.328,0.648,9.909,50,50,85,137,277,172,0.1,0.1,0.1,-2.8e-05,0.008451,0.003311,-0.010815,0.019337,0.913761,-0.405647,18.828125,18.828125,18.828125,18.90625,1.0067,1.0067,3223.6,298378,1,0,0,0,0,0,0,0,19.008857,18.847656,0.1612,106.4633160056399,29.582565292250727
3010,283735610,2272,1690354117.61,5,37,1,0.0,29.579953070746527,106.46725911458331,232.837,-12.712,-14.133,-0.028,2.522,-0.252,222.12,-0.584956677276454,-1.828864551689971,0.239982226574954,0.426,0.528,10.15,50,50,85,137,277,172,0.1,0.1,0.1,-2.8e-05,0.008451,0.003311,-0.010936,0.019226,0.913768,-0.405633,18.828125,18.828125,18.828125,18.90625,1.0067,1.0067,3223.61,298379,1,0,0,0,0,0,0,0,19.008857,18.847656,0.1612,106.46331573368785,29.58256529155221
3011,283735620,2272,1690354117.62,5,37,1,0.0,29.579953070746527,106.46725884331596,232.837,-12.712,-14.133,-0.028,2.514,-0.262,222.121,-0.791941347697353,-1.043922685601056,0.093993038741856,0.529,0.51,10.292,50,50,85,137,277,172,0.1,0.1,0.1,-2.8e-05,0.008451,0.003311,-0.010991,0.019126,0.913772,-0.405628,18.828125,18.828125,18.828125,18.90625,1.0067,1.0067,3223.62,298380,1,0,0,0,0,0,0,0,19.008857,18.847656,0.1612,106.46331546173582,29.58256529085369
3012,283735630,2272,1690354117.63,5,37,1,0.0,29.57995279947917,106.46725423177084,232.837,-12.712,-14.133,-0.028,2.513,-0.268,222.122,-0.146989113777161,-0.574957417835831,0.185986225595589,0.542,0.505,10.044,50,50,85,137,277,172,0.1,0.1,0.1,-2.8e-05,0.008451,0.003311,-0.011032,0.019094,0.913778,-0.405614,18.828125,18.859375,18.828125,18.890625,1.0067,1.0067,3223.63,298381,1,0,0,0,0,0,0,0,19.008857,18.851562,0.157294,106.46331083856796,29.582565007801403
3013,283735640,2272,1690354117.64,5,37,1,0.0,29.579948459201393,106.46725368923612,232.837,-12.712,-14.133,-0.028,2.507,-0.279,222.123,-0.557958676786772,-1.083919723363548,0.11299163167904,0.451,0.599,10.733,50,50,85,137,277,172,0.1,0.1,0.1,-2.8e-05,0.008451,0.003311,-0.011099,0.019012,0.913782,-0.405607,18.828125,18.859375,18.828125,18.890625,1.0067,1.0067,3223.64,298382,1,0,0,0,0,0,0,0,19.008857,18.851562,0.157294,106.46331029492882,29.58256066755991
3014,283735650,2272,1690354117.65,5,37,1,0.0,29.579948459201393,106.46725423177084,232.837,-12.712,-14.133,-0.028,2.503,-0.283,222.123,-0.428968230002734,-0.429968155946796,0.094992964685918,0.373,0.594,10.538,50,50,85,137,277,172,0.1,0.1,0.1,-2.8e-05,0.008451,0.003311,-0.011118,0.018963,0.913785,-0.405601,18.828125,18.859375,18.828125,18.890625,1.0067,1.0067,3223.65,298383,1,0,0,0,0,0,0,0,19.008857,18.851562,0.157294,106.46331083883283,29.582560668956877
3015,283735660,2272,1690354117.66,5,37,1,0.0,29.57994818793403,106.46725396050348,232.837,-12.712,-14.133,-0.028,2.498,-0.283,222.124,-0.416969118673986,-0.028997852377808,0.03099770426593,0.504,0.528,10.307,50,50,85,137,277,172,0.1,0.1,0.1,-2.8e-05,0.008451,0.003311,-0.011097,0.018929,0.913787,-0.4056,18.84375,18.828125,18.84375,18.921875,1.0067,1.0067,3223.66,298384,1,0,0,0,0,0,0,0,19.008857,18.859375,0.149482,106.46331056689738,29.58256039708061
3016,283735670,2272,1690354117.67,5,37,1,0.0,29.57994818793403,106.4672496202257,232.837,-12.712,-14.132,0.133,2.49,-0.285,222.123,-0.790941421753291,-0.240982152519019,-0.012999037272811,0.542,0.327,10.499,50,50,85,128,277,170,0.1,0.1,0.1,-2.8e-05,0.008451,0.003311,-0.011088,0.018857,0.913788,-0.405602,18.84375,18.828125,18.84375,18.921875,1.0067,1.0067,3223.67,298385,1,0,0,0,0,0,0,0,19.008113,18.859375,0.148738,106.46330621566557,29.58256038590513
3017,283735680,2272,1690354117.68,5,37,1,0.0,29.579943033854168,106.46724907769097,232.837,-12.712,-14.132,0.133,2.492,-0.282,222.124,0.184986299651526,0.286978745945882,0.081993927413108,0.329,0.331,10.715,50,50,85,128,277,170,0.1,0.1,0.1,-2.8e-05,0.008451,0.003311,-0.011071,0.018883,0.913791,-0.405595,18.859375,18.8125,18.859375,18.9375,1.0067,1.0067,3223.68,298386,1,0,0,0,0,0,0,0,19.008113,18.867188,0.140926,106.46330567207613,29.58255523213038
3018,283735690,2272,1690354117.69,5,37,1,0.0,29.579942762586807,106.4672496202257,232.837,-12.712,-14.132,0.133,2.497,-0.275,222.125,0.489963712590532,0.650951789584564,0.040996963706553,0.381,0.574,10.103,50,50,85,128,277,170,0.1,0.1,0.1,-2.8e-05,0.008451,0.003311,-0.011035,0.018945,0.913792,-0.405591,18.859375,18.8125,18.859375,18.9375,1.0067,1.0067,3223.69,298387,1,0,0,0,0,0,0,0,19.008113,18.867188,0.140926,106.46330621599664,29.582554962349505
3019,283735700,2272,1690354117.7,5,37,1,0.0,29.57994357638889,106.4672439236111,232.838,-12.712,-14.132,0.133,2.494,-0.274,222.126,-0.281979116225574,0.191985781259963,0.08699355713342,0.434,0.684,10.133,50,50,85,128,277,170,0.1,0.1,0.1,-2.8e-05,0.008451,0.003311,-0.01101,0.01893,0.913795,-0.405584,18.859375,18.8125,18.859375,18.9375,1.0067,1.0067,3223.7,298388,1,0,0,0,0,0,0,0,19.008113,18.867188,0.140926,106.46330050495602,29.58255576121576
