,sec_of_week,gps_week_number,utc,position_type,numsv,ins_status,temperature,latitude,longitude,altitude,north_velocity,east_velocity,ground_velocity,roll,pitch,heading,x_angular_velocity,y_angular_velocity,z_angular_velocity,x_acc,y_acc,z_acc,latitude_std,longitude_std,altitude_std,north_velocity_std,east_velocity_std,ground_velocity_std,roll_std,pitch_std,heading_std,atb_0,atb_1,atb_2,q_x,q_y,q_z,q_w,fl_wheel_vel,fr_wheel_vel,rl_wheel_vel,rr_wheel_vel,l_wheel_factor,r_wheel_factor,time_stamp,seq,time_valid,timestamp_sab_vehicle,x_angular_velocity_bias,y_angular_velocity_bias,z_angular_velocity_bias,x_acc_bias,y_acc_bias,z_acc_bias,gps_velocity,wheel_speed,dv,sec_of_week_last_three,new_longitude,new_latitude
1578,284392670,2272,1690354775.3400002,1,7,0,0.0,29.496824815538197,106.44572509765624,317.213,-4.059,10.234,1.086,-0.134,-1.12,356.814,0.234982596854642,3.496741026385906,7.798422437741976,0.423,1.387,9.811,55,107,77,692,833,862,0.1,0.1,0.1,-2.9e-05,0.008429,0.003332,-0.007898,0.005866,0.726457,0.687141,10.53125,10.75,10.53125,10.8125,1.0052,1.0052,3880.67,364085,1,0,0,0,0,0,0,0,11.009552,10.65625,0.353302,0.67,106.44174025333146,29.49942030815489
1579,284392680,2272,1690354775.3600001,1,7,0,0.0,29.496820475260417,106.4457253689236,317.216,-4.059,10.234,1.086,-0.128,-1.094,356.892,0.766943199095793,2.552810935191083,7.736427029210113,0.356,1.483,9.279,55,107,77,692,833,862,0.1,0.1,0.1,-2.9e-05,0.008429,0.003332,-0.007694,0.005756,0.725994,0.687633,10.546875,10.75,10.546875,10.8125,1.0052,1.0052,3880.68,364086,1,0,0,0,0,0,0,0,11.009552,10.664062,0.34549,0.68,106.44174052533899,29.499415970265925
1580,284392690,2272,1690354775.38,1,7,0,0.0,29.496820475260417,106.44573052300348,317.218,-4.059,10.234,1.086,-0.129,-1.086,356.97,0.044996667482803,0.818939348187033,7.812421400958849,0.447,1.343,10.169,55,108,78,692,833,862,0.1,0.1,0.1,-2.9e-05,0.008429,0.003332,-0.007644,0.005705,0.725526,0.688128,10.546875,10.75,10.546875,10.8125,1.0052,1.0052,3880.69,364087,1,0,0,0,0,0,0,0,11.009552,10.664062,0.34549,0.69,106.44174568843077,29.499415979951923
1581,284392700,2272,1690354775.4,1,7,0,0.0,29.496820475260417,106.44572943793403,317.221,-4.059,10.234,1.086,-0.118,-1.071,357.047,1.237908318749142,1.525886990639088,7.756425548091359,0.454,1.171,9.632,55,108,78,692,833,862,0.1,0.1,0.1,-2.9e-05,0.008429,0.003332,-0.007477,0.005687,0.725061,0.68862,10.546875,10.75,10.546875,10.8125,1.0052,1.0052,3880.7,364088,1,0,0,0,0,0,0,0,11.009552,10.664062,0.34549,0.7,106.441744601464,29.499415977912683
1582,284392710,2272,1690354775.42,1,7,0,0.0,29.496820475260417,106.44572943793403,317.224,-4.059,10.234,1.086,-0.103,-1.061,357.127,1.631879140709693,0.942930165250759,7.914413847253203,0.5,1.448,9.832,55,109,77,692,833,862,0.1,0.1,0.1,-2.9e-05,0.008429,0.003332,-0.007324,0.005729,0.724585,0.689122,10.546875,10.78125,10.546875,10.828125,1.0052,1.0052,3880.71,364089,1,0,0,0,0,0,0,0,11.009552,10.675781,0.333771,0.71,106.441744601464,29.499415977912683
1583,284392720,2272,1690354775.44,1,7,0,0.0,29.496820475260417,106.44572970920137,317.227,-4.059,10.234,1.086,-0.103,-1.045,357.205,0.163987854826218,1.636878770430005,7.857418068441653,0.387,1.61,9.705,55,109,78,692,833,862,0.1,0.1,0.1,-2.9e-05,0.008429,0.003332,-0.007215,0.005636,0.724113,0.68962,10.546875,10.78125,10.546875,10.828125,1.0052,1.0052,3880.72,364090,1,0,0,0,0,0,0,0,11.009552,10.675781,0.333771,0.72,106.44174487320566,29.499415978422487
1584,284392730,2272,1690354775.46,1,7,0,0.0,29.496820475260417,106.44573459201388,317.229,-4.059,10.234,1.086,-0.104,-1.021,357.284,0.039997037762491,2.366824709595493,7.878416513266961,0.335,1.435,9.074,55,110,78,692,833,862,0.1,0.1,0.1,-2.9e-05,0.008429,0.003332,-0.007067,0.005491,0.72364,0.690118,10.546875,10.78125,10.546875,10.828125,1.0052,1.0052,3880.73,364091,1,0,0,0,0,0,0,0,11.009552,10.675781,0.333771,0.73,106.44174976455663,29.49941598759948
1585,284392740,2272,1690354775.48,1,7,0,0.0,29.496820203993057,106.44573486328125,317.232,-4.059,10.234,1.086,-0.108,-1.005,357.362,-0.238982300630894,1.598881584555637,7.833419845784158,0.532,1.328,9.306,55,110,78,692,833,862,0.1,0.1,0.1,-2.9e-05,0.008429,0.003332,-0.006984,0.005375,0.72317,0.690613,10.546875,10.765625,10.546875,10.859375,1.0052,1.0052,3880.74,364092,1,0,0,0,0,0,0,0,11.009552,10.679688,0.329865,0.74,106.441750036315,29.49941571695942
1586,284392750,2272,1690354775.5,1,7,0,0.0,29.496820203993057,106.44573486328125,317.235,-4.059,10.234,1.086,-0.105,-0.99,357.44,0.361973191750556,1.416895062736296,7.824420512287596,0.492,1.308,9.369,55,110,79,692,833,862,0.1,0.1,0.1,-2.9e-05,0.008429,0.003332,-0.006877,0.005308,0.722699,0.691108,10.546875,10.765625,10.546875,10.859375,1.0052,1.0052,3880.75,364093,1,0,0,0,0,0,0,0,11.009552,10.679688,0.329865,0.75,106.441750036315,29.49941571695942
1587,284392760,2272,1690354775.52,1,7,0,0.0,29.496820203993057,106.44573486328125,317.237,-4.059,10.234,1.086,-0.097,-0.987,357.519,1.000925870006374,0.370972525247117,7.846418883056967,0.379,1.397,9.664,55,111,78,692,833,862,0.1,0.1,0.1,-2.9e-05,0.008429,0.003332,-0.006797,0.005344,0.722225,0.691603,10.5625,10.78125,10.5625,10.84375,1.0052,1.0052,3880.76,364094,1,0,0,0,0,0,0,0,11.009552,10.6875,0.322052,0.76,106.441750036315,29.49941571695942
1588,284392770,2272,1690354775.54,1,7,0,0.0,29.496820203993057,106.4457351345486,317.24,0.0,0.0,0.0,-0.091,-0.981,357.597,0.742944976438297,0.585956603220514,7.841419253336655,0.443,1.452,9.609,55,111,78,903,986,1144,0.1,0.1,0.1,-2.9e-05,0.008429,0.003332,-0.006719,0.005351,0.721752,0.692098,10.5625,10.78125,10.5625,10.84375,1.0052,1.0052,3880.77,364095,1,0,0,0,0,0,0,0,0.0,10.6875,10.6875,0.77,106.44175030805675,29.499415717469283
1589,284392780,2272,1690354775.56,1,7,0,0.0,29.496820203993057,106.44574028862849,317.242,0.0,0.0,0.0,-0.088,-0.969,357.676,0.401970229513048,1.122916835181976,7.915413773197266,0.418,1.569,9.166,55,112,79,903,986,1144,0.1,0.1,0.1,-2.9e-05,0.008429,0.003332,-0.006628,0.005305,0.721274,0.692597,10.5625,10.78125,10.5625,10.84375,1.0052,1.0052,3880.78,364096,1,0,0,0,0,0,0,0,0.0,10.6875,10.6875,0.78,106.44175547115067,29.499415727157196
1590,284392790,2272,1690354775.58,1,7,0,0.0,29.496820203993057,106.44573947482638,317.244,0.0,0.0,0.0,-0.096,-0.957,357.756,-0.705947716507994,1.224909281476332,7.940411921798824,0.603,1.513,8.984,56,112,79,903,986,1144,0.1,0.1,0.1,-2.9e-05,0.008429,0.003332,-0.006598,0.005182,0.720795,0.693096,10.5625,10.765625,10.5625,10.875,1.0052,1.0052,3880.79,364097,1,0,0,0,0,0,0,0,0.0,10.691406,10.691406,0.79,106.44175465592522,29.499415725627458
1591,284392800,2272,1690354775.6,1,7,0,0.0,29.496820203993057,106.44573947482638,317.247,0.0,0.0,0.0,-0.103,-0.947,357.835,-0.56595808433927,0.991926536509813,7.934412366134452,0.396,1.28,9.129,56,112,79,903,986,1144,0.1,0.1,0.1,-2.9e-05,0.008429,0.003332,-0.006573,0.005082,0.720316,0.693595,10.5625,10.765625,10.5625,10.875,1.0052,1.0052,3880.8,364098,1,0,0,0,0,0,0,0,0.0,10.691406,10.691406,0.8,106.44175465592522,29.499415725627458
1592,284392810,2272,1690354775.62,1,7,0,0.0,29.496819932725696,106.44573974609376,317.249,0.0,0.0,0.0,-0.102,-0.937,357.914,0.252981263847764,0.992926462453875,7.920413402917578,0.415,1.168,9.096,55,113,79,903,986,1144,0.1,0.1,0.1,-2.9e-05,0.008429,0.003332,-0.0065,0.005033,0.719837,0.694094,10.5625,10.796875,10.5625,10.859375,1.0052,1.0052,3880.81,364099,1,0,0,0,0,0,0,0,0.0,10.695312,10.695312,0.81,106.44175492768368,29.49941545498745
1593,284392820,2272,1690354775.6399999,1,7,0,0.0,29.496819932725696,106.44574462890624,317.251,0.0,0.0,0.0,-0.094,-0.932,357.994,0.904932979376392,0.461965786156787,7.957410662847884,0.389,1.535,9.536,56,113,79,903,986,1144,0.1,0.1,0.1,-2.9e-05,0.008429,0.003332,-0.00642,0.005058,0.719355,0.694594,10.5625,10.796875,10.5625,10.859375,1.0052,1.0052,3880.82,364100,1,0,0,0,0,0,0,0,0.0,10.695312,10.695312,0.82,106.4417598190367,29.499415464166304
1594,284392830,2272,1690354775.6599998,1,7,0,0.0,29.496819932725696,106.4457449001736,317.253,0.0,0.0,0.0,-0.092,-0.921,358.073,0.420968822450232,1.153914539447908,7.904414587812582,0.531,1.484,8.892,56,114,79,903,986,1144,0.1,0.1,0.1,-2.9e-05,0.008429,0.003332,-0.006325,0.00501,0.718876,0.695091,10.578125,10.78125,10.578125,10.875,1.0052,1.0052,3880.83,364101,1,0,0,0,0,0,0,0,0.0,10.703125,10.703125,0.83,106.44176009077856,29.499415464676268
1595,284392840,2272,1690354775.6799998,1,7,0,0.0,29.496819932725696,106.4457449001736,317.255,0.0,0.0,0.0,-0.086,-0.914,358.152,0.723946383501113,0.611954677766134,7.923413180749765,0.401,1.465,8.911,56,114,80,903,986,1144,0.1,0.1,0.1,-2.9e-05,0.008429,0.003332,-0.006246,0.005014,0.718395,0.695588,10.578125,10.78125,10.578125,10.875,1.0052,1.0052,3880.84,364102,1,0,0,0,0,0,0,0,0.0,10.703125,10.703125,0.84,106.44176009077856,29.499415464676268
1596,284392850,2272,1690354775.6999998,1,7,0,0.0,29.496819932725696,106.4457449001736,317.257,0.0,0.0,0.0,-0.084,-0.918,358.231,0.234982596854642,-0.350974006365873,7.866417401938213,0.352,1.523,9.137,56,115,80,903,986,1144,0.1,0.1,0.1,-2.9e-05,0.008429,0.003332,-0.006258,0.005046,0.717917,0.696081,10.578125,10.78125,10.578125,10.875,1.0052,1.0052,3880.85,364103,1,0,0,0,0,0,0,0,0.0,10.703125,10.703125,0.85,106.44176009077856,29.499415464676268
1597,284392860,2272,1690354775.7199998,1,7,0,0.0,29.496819932725696,106.44574517144096,317.259,0.0,0.0,0.0,-0.082,-0.922,358.31,0.376972080911491,-0.433967859723045,7.927412884526015,0.398,1.3,9.6,56,115,80,903,986,1144,0.1,0.1,0.1,-2.9e-05,0.008429,0.003332,-0.006266,0.005092,0.717436,0.696577,10.59375,10.828125,10.59375,10.859375,1.0052,1.0052,3880.86,364104,1,0,0,0,0,0,0,0,0.0,10.71875,10.71875,0.86,106.44176036252043,29.499415465186235
1598,284392870,2272,1690354775.7399998,1,7,0,0.0,29.496819932725696,106.44575005425347,317.261,-4.594,10.087,0.823,-0.073,-0.92,358.388,0.987926832733564,0.232982744966517,7.801422215574163,0.555,1.341,9.403,56,115,80,627,773,764,0.1,0.1,0.1,-2.9e-05,0.008429,0.003332,-0.006195,0.005136,0.716961,0.697066,10.59375,10.828125,10.59375,10.859375,1.0052,1.0052,3880.87,364105,1,0,0,0,0,0,0,0,11.08388,10.71875,0.36513,0.87,106.4417652538746,29.4994154743661
1599,284392880,2272,1690354775.7600002,1,7,0,0.0,29.496819932725696,106.44575032552083,317.263,-4.594,10.087,0.823,-0.063,-0.92,358.467,1.162913872944468,0.003999703776248,7.8694171797704,0.492,1.482,9.519,56,116,80,627,773,764,0.1,0.1,0.1,-2.9e-05,0.008429,0.003332,-0.006128,0.005204,0.716481,0.697559,10.609375,10.828125,10.609375,10.859375,1.0052,1.0052,3880.88,364106,1,0,0,0,0,0,0,0,11.08388,10.726562,0.357318,0.88,106.44176552561655,29.49941547487612
1600,284392890,2272,1690354775.7800002,1,7,0,0.0,29.496819932725696,106.44575032552083,317.265,-4.594,10.087,0.823,-0.056,-0.92,358.545,0.865935867557961,-0.013998963216874,7.827420290119783,0.401,1.562,9.717,56,116,80,627,773,764,0.1,0.1,0.1,-2.9e-05,0.008429,0.003332,-0.00608,0.005255,0.716005,0.698048,10.609375,10.828125,10.609375,10.859375,1.0052,1.0052,3880.89,364107,1,0,0,0,0,0,0,0,11.08388,10.726562,0.357318,0.89,106.44176552561655,29.49941547487612
1601,284392900,2272,1690354775.8000002,1,7,0,0.0,29.496819932725696,106.44574978298613,317.267,-4.594,10.087,0.823,-0.052,-0.903,358.622,0.468965267765223,1.641878400150316,7.719428288161053,0.411,1.537,9.204,56,117,81,627,773,764,0.1,0.1,0.1,-2.9e-05,0.008429,0.003332,-0.005952,0.005181,0.715535,0.698531,10.609375,10.828125,10.609375,10.859375,1.0052,1.0052,3880.9,364108,1,0,0,0,0,0,0,0,11.08388,10.726562,0.357318,0.9,106.44176498213271,29.499415473856082
1602,284392910,2272,1690354775.8200002,1,7,0,0.0,29.49681966145833,106.4457546657986,317.268,-4.594,10.087,0.823,-0.046,-0.896,358.699,0.749944458046733,0.699948160843618,7.705429324944181,0.363,1.345,8.883,56,117,80,627,773,764,0.1,0.1,0.1,-2.9e-05,0.008429,0.003332,-0.005867,0.005181,0.715065,0.699013,10.609375,10.828125,10.609375,10.859375,1.0052,1.0052,3880.91,364109,1,0,0,0,0,0,0,0,11.08388,10.726562,0.357318,0.91,106.44176987350443,29.49941521188688
1603,284392920,2272,1690354775.8400002,1,7,0,0.0,29.49681966145833,106.44575493706596,317.27,-4.594,10.087,0.823,-0.041,-0.903,358.776,0.614954455598321,-0.655951419304879,7.740426732986363,0.463,1.415,9.451,56,117,80,627,773,764,0.1,0.1,0.1,-2.9e-05,0.008429,0.003332,-0.005874,0.005256,0.714592,0.699496,10.609375,10.828125,10.609375,10.859375,1.0052,1.0052,3880.92,364110,1,0,0,0,0,0,0,0,11.08388,10.726562,0.357318,0.92,106.44177014524641,29.499415212396947
1604,284392930,2272,1690354775.8600001,1,7,0,0.0,29.49681966145833,106.44575493706596,317.272,-4.594,10.087,0.823,-0.033,-0.914,358.855,0.874935201054522,-1.078920093643237,7.831419993896032,0.464,1.369,10.143,56,118,81,627,773,764,0.1,0.1,0.1,-2.9e-05,0.008429,0.003332,-0.005891,0.005372,0.714113,0.699984,10.609375,10.828125,10.609375,10.859375,1.0052,1.0052,3880.93,364111,1,0,0,0,0,0,0,0,11.08388,10.726562,0.357318,0.93,106.44177014524641,29.499415212396947
1605,284392940,2272,1690354775.88,1,7,0,0.0,29.49681966145833,106.44575493706596,317.273,-4.594,10.087,0.823,-0.021,-0.909,358.932,1.309902986721629,0.499962972031155,7.749426066482923,0.421,1.487,9.504,57,118,81,627,773,764,0.1,0.1,0.1,-2.9e-05,0.008429,0.003332,-0.005784,0.00542,0.71364,0.700467,10.625,10.84375,10.625,10.890625,1.0052,1.0052,3880.94,364112,1,0,0,0,0,0,0,0,11.08388,10.746094,0.337787,0.94,106.44177014524641,29.499415212396947
1606,284392950,2272,1690354775.9,1,7,0,0.0,29.49681966145833,106.44575520833332,317.275,-4.594,10.087,0.823,-0.012,-0.908,359.008,1.043922685601053,0.065995112308111,7.585438211656704,0.329,1.558,9.712,57,119,81,627,773,764,0.1,0.1,0.1,-2.9e-05,0.008429,0.003332,-0.00572,0.005477,0.713175,0.70094,10.625,10.84375,10.625,10.890625,1.0052,1.0052,3880.95,364113,1,0,0,0,0,0,0,0,11.08388,10.746094,0.337787,0.95,106.44177041698839,29.499415212907017
1607,284392960,2272,1690354775.92,1,7,0,0.0,29.49681966145833,106.44576009114581,317.277,-4.594,10.087,0.823,-0.008,-0.906,359.084,0.532960528185211,0.200985114756524,7.587438063544829,0.366,1.628,9.651,56,119,81,627,773,764,0.1,0.1,0.1,-2.9e-05,0.008429,0.003332,-0.005679,0.005494,0.712711,0.701412,10.625,10.828125,10.625,10.875,1.0052,1.0052,3880.96,364114,1,0,0,0,0,0,0,0,11.08388,10.738281,0.345599,0.96,106.44177530834465,29.499415222088746
1608,284392970,2272,1690354775.94,1,7,0,0.0,29.49681966145833,106.4457603624132,317.278,-4.641,9.838,0.767,-0.004,-0.902,359.16,0.482964230982096,0.387971266296176,7.578438730048267,0.47,1.58,9.462,57,120,81,943,1120,1248,0.1,0.1,0.1,-2.9e-05,0.008429,0.003332,-0.005629,0.005497,0.712247,0.701884,10.625,10.828125,10.625,10.875,1.0052,1.0052,3880.97,364115,1,0,0,0,0,0,0,0,10.877735,10.738281,0.139454,0.97,106.44177558008671,29.49941522259887
1609,284392980,2272,1690354775.96,1,7,0,0.0,29.49681966145833,106.4457603624132,317.28,-4.641,9.838,0.767,-0.003,-0.906,359.236,0.264980375176511,-0.430968081890858,7.574439026272017,0.478,1.498,9.7,57,120,81,943,1120,1248,0.1,0.1,0.1,-2.9e-05,0.008429,0.003332,-0.005643,0.005536,0.711783,0.702354,10.640625,10.859375,10.640625,10.890625,1.0052,1.0052,3880.98,364116,1,0,0,0,0,0,0,0,10.877735,10.757812,0.119923,0.98,106.44177558008671,29.49941522259887
1610,284392990,2272,1690354775.98,1,7,0,0.0,29.49681966145833,106.4457595486111,317.281,-4.641,9.838,0.767,-0.002,-0.908,359.311,0.186986151539651,-0.202984966644651,7.578438730048267,0.397,1.437,9.843,57,120,82,943,1120,1248,0.1,0.1,0.1,-2.9e-05,0.008429,0.003332,-0.005648,0.005557,0.711318,0.702825,10.640625,10.859375,10.640625,10.890625,1.0052,1.0052,3880.99,364117,1,0,0,0,0,0,0,0,10.877735,10.757812,0.119923,0.99,106.44177476486057,29.49941522106851
1628,284393170,2272,1690354775.3400002,1,0,0,0.0,29.49681966145833,106.44577962239585,317.311,-3.697,10.383,0.661,0.033,-0.906,0.651,0.599955566437386,0.418968970562108,7.418450578998298,0.502,1.308,9.747,58,128,84,734,876,897,0.1,0.1,0.1,-2.9e-05,0.008429,0.003332,-0.005347,0.005825,0.703049,0.711097,10.6875,10.890625,10.6875,10.953125,1.0052,1.0052,3881.17,364135,1,0,0,0,0,0,0,0,11.021547,10.804688,0.216859,0.17,106.44179487377984,29.49941525882474
1629,284393180,2272,1690354775.3600001,1,0,0,0.0,29.49681966145833,106.44578477647568,317.313,-3.697,10.383,0.661,0.044,-0.9,0.726,1.155914391336032,0.60595512210176,7.508443913963905,0.537,1.263,9.455,58,128,84,734,876,897,0.1,0.1,0.1,-2.9e-05,0.008429,0.003332,-0.005242,0.005855,0.702582,0.711558,10.6875,10.890625,10.6875,10.953125,1.0052,1.0052,3881.18,364136,1,0,0,0,0,0,0,0,11.021547,10.804688,0.216859,0.18,106.44180003688345,29.499415268521382
1630,284393190,2272,1690354775.38,1,0,0,0.0,29.49681966145833,106.44578504774304,317.314,-3.697,10.383,0.661,0.045,-0.898,0.8,0.292978301610256,0.209984448253084,7.366454429907058,0.409,1.39,9.817,58,129,84,734,876,897,0.1,0.1,0.1,-2.9e-05,0.008429,0.003332,-0.005215,0.005856,0.702125,0.71201,10.6875,10.890625,10.6875,10.953125,1.0052,1.0052,3881.19,364137,1,0,0,0,0,0,0,0,11.021547,10.804688,0.216859,0.19,106.44180030862579,29.49941526903176
1631,284393200,2272,1690354775.4,1,0,0,0.0,29.49681966145833,106.44578504774304,317.316,-3.697,10.383,0.661,0.053,-0.895,0.875,0.84793720056484,0.255981041679951,7.504444210187656,0.377,1.274,9.73,58,129,85,734,876,897,0.1,0.1,0.1,-2.9e-05,0.008429,0.003332,-0.005151,0.005889,0.701658,0.71247,10.703125,10.890625,10.703125,10.96875,1.0052,1.0052,3881.2,364138,1,0,0,0,0,0,0,0,11.021547,10.816406,0.205141,0.2,106.44180030862579,29.49941526903176
1632,284393210,2272,1690354775.42,1,0,0,0.0,29.49681966145833,106.44578504774304,317.318,-3.697,10.383,0.661,0.061,-0.899,0.951,0.982927203013252,-0.342974598813375,7.5404415441739,0.308,1.577,10.095,58,130,84,734,876,897,0.1,0.1,0.1,-2.9e-05,0.008429,0.003332,-0.005115,0.005968,0.701189,0.712932,10.703125,10.890625,10.703125,10.96875,1.0052,1.0052,3881.21,364139,1,0,0,0,0,0,0,0,11.021547,10.816406,0.205141,0.21,106.44180030862579,29.49941526903176
1633,284393220,2272,1690354775.44,1,0,0,0.0,29.49681966145833,106.44578504774304,317.319,-3.697,10.383,0.661,0.063,-0.905,1.025,0.247981634127452,-0.577957195668018,7.481445913474222,0.49,1.369,9.853,58,130,84,734,876,897,0.1,0.1,0.1,-2.9e-05,0.008429,0.003332,-0.005139,0.006016,0.700723,0.713389,10.703125,10.890625,10.703125,10.96875,1.0052,1.0052,3881.22,364140,1,0,0,0,0,0,0,0,11.021547,10.816406,0.205141,0.22,106.44180030862579,29.49941526903176
1634,284393230,2272,1690354775.46,1,0,0,0.0,29.49681966145833,106.44578938802081,317.321,-3.697,10.383,0.661,0.068,-0.905,1.1,0.653951567416751,0.036997259930304,7.437449171935481,0.47,1.292,10.207,58,130,85,734,876,897,0.1,0.1,0.1,-2.9e-05,0.008429,0.003332,-0.0051,0.00605,0.700259,0.713844,10.71875,10.921875,10.71875,10.96875,1.0052,1.0052,3881.23,364141,1,0,0,0,0,0,0,0,11.021547,10.832031,0.189516,0.23,106.44180465650346,29.49941527719818
1635,284393240,2272,1690354775.48,1,0,0,0.0,29.49681966145833,106.4457896592882,317.323,-3.697,10.383,0.661,0.076,-0.9,1.175,0.940930313362635,0.428968230002731,7.535441914453588,0.393,1.441,9.711,58,131,85,734,876,897,0.1,0.1,0.1,-2.9e-05,0.008429,0.003332,-0.005019,0.006078,0.69979,0.714305,10.71875,10.921875,10.71875,10.96875,1.0052,1.0052,3881.24,364142,1,0,0,0,0,0,0,0,11.021547,10.832031,0.189516,0.24,106.44180492824586,29.499415277708607
1636,284393250,2272,1690354775.5,1,0,0,0.0,29.49681966145833,106.4457896592882,317.325,-3.697,10.383,0.661,0.081,-0.902,1.25,0.612954603710196,-0.162987928882158,7.449448283264228,0.312,1.307,10.019,59,131,85,734,876,897,0.1,0.1,0.1,-2.9e-05,0.008429,0.003332,-0.004995,0.006122,0.699325,0.71476,10.71875,10.921875,10.71875,10.96875,1.0052,1.0052,3881.25,364143,1,0,0,0,0,0,0,0,11.021547,10.832031,0.189516,0.25,106.44180492824586,29.499415277708607
1637,284393260,2272,1690354775.52,1,0,0,0.0,29.49681966145833,106.4457896592882,317.326,-3.697,10.383,0.661,0.09,-0.902,1.324,1.057921648817925,0.08699355713342,7.44544857948798,0.445,1.552,10.166,58,132,85,734,876,897,0.1,0.1,0.1,-2.9e-05,0.008429,0.003332,-0.004928,0.006178,0.69886,0.715214,10.71875,10.9375,10.71875,10.953125,1.0052,1.0052,3881.26,364144,1,0,0,0,0,0,0,0,11.021547,10.832031,0.189516,0.26,106.44180492824586,29.499415277708607
1638,284393270,2272,1690354775.54,1,0,0,0.0,29.49681966145833,106.44579481336804,317.328,-3.85,10.772,0.532,0.097,-0.903,1.399,0.744944828326422,-0.175986966154968,7.489445321026722,0.554,1.491,10.276,59,132,85,728,872,871,0.1,0.1,0.1,-2.9e-05,0.008429,0.003332,-0.004896,0.006232,0.698392,0.715671,10.71875,10.9375,10.71875,10.953125,1.0052,1.0052,3881.27,364145,1,0,0,0,0,0,0,0,11.439339,10.832031,0.607308,0.27,106.4418100913517,29.499415287407217
1639,284393280,2272,1690354775.56,1,0,0,0.0,29.49681966145833,106.44579481336804,317.33,-3.85,10.772,0.532,0.098,-0.899,1.474,0.267980153008698,0.442967193219603,7.521442951236715,0.459,1.488,9.574,59,133,85,728,872,871,0.1,0.1,0.1,-2.9e-05,0.008429,0.003332,-0.004857,0.006217,0.697922,0.716129,10.71875,10.953125,10.71875,10.96875,1.0052,1.0052,3881.28,364146,1,0,0,0,0,0,0,0,11.439339,10.839844,0.599496,0.28,106.4418100913517,29.499415287407217
1640,284393290,2272,1690354775.58,1,0,0,0.0,29.496819932725696,106.44579508463542,317.332,-3.85,10.772,0.532,0.099,-0.896,1.549,0.205984744476835,0.304977412939004,7.473446505921724,0.387,1.347,9.706,59,133,86,728,872,871,0.1,0.1,0.1,-2.9e-05,0.008429,0.003332,-0.00483,0.006208,0.697455,0.716585,10.71875,10.953125,10.71875,10.96875,1.0052,1.0052,3881.29,364147,1,0,0,0,0,0,0,0,11.439339,10.839844,0.599496,0.29,106.44181036307754,29.49941555906762
1641,284393300,2272,1690354775.6,1,0,0,0.0,29.496819932725696,106.44579508463542,317.334,-3.85,10.772,0.532,0.1,-0.891,1.624,0.18198652181934,0.500962897975217,7.465447098369227,0.372,1.349,9.734,59,133,86,728,872,871,0.1,0.1,0.1,-2.9e-05,0.008429,0.003332,-0.004792,0.006185,0.696988,0.717039,10.71875,10.953125,10.71875,10.96875,1.0052,1.0052,3881.3,364148,1,0,0,0,0,0,0,0,11.439339,10.839844,0.599496,0.3,106.44181036307754,29.49941555906762
1642,284393310,2272,1690354775.62,1,0,0,0.0,29.49681966145833,106.4457994249132,317.335,-3.85,10.772,0.532,0.105,-0.889,1.699,0.636952826367692,0.234982596854642,7.501444432355469,0.487,1.513,9.751,59,134,85,728,872,871,0.1,0.1,0.1,-2.9e-05,0.008429,0.003332,-0.004742,0.006206,0.696518,0.717495,10.75,10.921875,10.75,11.0,1.0052,1.0052,3881.31,364149,1,0,0,0,0,0,0,0,11.439339,10.855469,0.583871,0.31,106.44181471097369,29.499415296085775
1643,284393320,2272,1690354775.6399999,1,0,0,0.0,29.49681966145833,106.4457994249132,317.337,-3.85,10.772,0.532,0.107,-0.888,1.773,0.313976746435565,0.103992298182479,7.46244732053704,0.446,1.616,9.81,59,134,86,728,872,871,0.1,0.1,0.1,-2.9e-05,0.008429,0.003332,-0.00472,0.006216,0.696051,0.717949,10.75,10.921875,10.75,11.0,1.0052,1.0052,3881.32,364150,1,0,0,0,0,0,0,0,11.439339,10.855469,0.583871,0.32,106.44181471097369,29.499415296085775
1644,284393330,2272,1690354775.6599998,1,0,0,0.0,29.49681966145833,106.44579969618056,317.339,-3.85,10.772,0.532,0.102,-0.888,1.848,-0.35397378419806,0.057995704755613,7.436449245991419,0.414,1.613,9.938,59,135,86,728,872,871,0.1,0.1,0.1,-2.9e-05,0.008429,0.003332,-0.004743,0.006188,0.695585,0.718401,10.75,10.953125,10.75,11.0,1.0052,1.0052,3881.33,364151,1,0,0,0,0,0,0,0,11.439339,10.863281,0.576058,0.33,106.44181498271618,29.499415296596304
1645,284393340,2272,1690354775.6799998,1,0,0,0.0,29.49681966145833,106.44579969618056,317.341,-3.85,10.772,0.532,0.098,-0.88,1.922,-0.291978375666197,0.79194134769735,7.472446579977661,0.434,1.384,9.321,59,135,86,728,872,871,0.1,0.1,0.1,-2.9e-05,0.008429,0.003332,-0.004718,0.006117,0.695117,0.718854,10.75,10.953125,10.75,11.0,1.0052,1.0052,3881.34,364152,1,0,0,0,0,0,0,0,11.439339,10.863281,0.576058,0.34,106.44181498271618,29.499415296596304
1646,284393350,2272,1690354775.6999998,1,0,0,0.0,29.49681966145833,106.44579969618056,317.342,-3.85,10.772,0.532,0.1,-0.878,1.997,0.312976820491503,0.269980004896823,7.492445098858909,0.304,1.425,9.519,59,136,86,728,872,871,0.1,0.1,0.1,-2.9e-05,0.008429,0.003332,-0.004686,0.006117,0.694647,0.719309,10.75,10.953125,10.75,11.0,1.0052,1.0052,3881.35,364153,1,0,0,0,0,0,0,0,11.439339,10.863281,0.576058,0.35,106.44181498271618,29.499415296596304
1647,284393360,2272,1690354775.7199998,1,0,0,0.0,29.49681966145833,106.4458048502604,317.344,-3.85,10.772,0.532,0.097,-0.881,2.072,-0.242982004407143,-0.269980004896826,7.464447172425164,0.484,1.346,9.493,59,136,86,728,872,871,0.1,0.1,0.1,-2.9e-05,0.008429,0.003332,-0.004722,0.006116,0.694178,0.719761,10.75,10.953125,10.75,11.0,1.0052,1.0052,3881.36,364154,1,0,0,0,0,0,0,0,11.439339,10.863281,0.576058,0.36,106.44182014582421,29.499415306296882
1648,284393370,2272,1690354775.7399998,1,0,0,0.0,29.49681966145833,106.4458048502604,317.346,-4.741,10.211,0.359,0.1,-0.879,2.147,0.427968304058668,0.175986966154966,7.542441396062024,0.518,1.512,10.035,59,136,86,686,873,833,0.1,0.1,0.1,-2.9e-05,0.008429,0.003332,-0.004688,0.006128,0.693705,0.720218,10.75,10.9375,10.75,11.03125,1.0052,1.0052,3881.37,364155,1,0,0,0,0,0,0,0,11.257957,10.867188,0.39077,0.37,106.44182014582421,29.499415306296882
1649,284393380,2272,1690354775.7600002,1,0,0,0.0,29.49681966145833,106.44580539279512,317.348,-4.741,10.211,0.359,0.097,-0.877,2.222,-0.114991483567167,0.212984226085271,7.494444950747034,0.434,1.521,9.802,59,137,87,686,873,833,0.1,0.1,0.1,-2.9e-05,0.008429,0.003332,-0.004687,0.006105,0.693234,0.720671,10.75,10.9375,10.75,11.03125,1.0052,1.0052,3881.38,364156,1,0,0,0,0,0,0,0,11.257957,10.867188,0.39077,0.38,106.44182068930932,29.499415307318056
1650,284393390,2272,1690354775.7800002,1,0,0,0.0,29.496819932725696,106.44580430772568,317.349,-4.741,10.211,0.359,0.095,-0.875,2.297,-0.14198948405685,0.200985114756524,7.489445321026722,0.386,1.377,9.451,59,137,87,686,873,833,0.1,0.1,0.1,-2.9e-05,0.008429,0.003332,-0.004688,0.006081,0.692763,0.721124,10.75,10.9375,10.75,11.03125,1.0052,1.0052,3881.39,364157,1,0,0,0,0,0,0,0,11.257957,10.867188,0.39077,0.39,106.44181960232248,29.499415576425648
1651,284393400,2272,1690354775.8000002,1,0,0,0.0,29.496819932725696,106.44580946180557,317.351,-4.741,10.211,0.359,0.094,-0.875,2.372,0.065995112308111,-0.002999777832188,7.487445469138597,0.403,1.405,9.682,59,138,87,686,873,833,0.1,0.1,0.1,-2.9e-05,0.008429,0.003332,-0.004688,0.006082,0.692291,0.721576,10.75,10.953125,10.75,11.0,1.0052,1.0052,3881.4,364158,1,0,0,0,0,0,0,0,11.257957,10.863281,0.394676,0.4,106.44182476543156,29.499415586127128
1652,284393410,2272,1690354775.8200002,1,0,0,0.0,29.496819932725696,106.44580946180557,317.353,-4.741,10.211,0.359,0.095,-0.877,2.447,0.148988965665283,-0.152988669441535,7.556440359278897,0.457,1.446,9.705,59,138,87,686,873,833,0.1,0.1,0.1,-2.9e-05,0.008429,0.003332,-0.004692,0.006098,0.691815,0.722033,10.75,10.953125,10.75,11.0,1.0052,1.0052,3881.41,364159,1,0,0,0,0,0,0,0,11.257957,10.863281,0.394676,0.41,106.44182476543156,29.499415586127128
1653,284393420,2272,1690354775.8400002,1,0,0,0.0,29.496819932725696,106.44580973307292,317.354,-4.741,10.211,0.359,0.095,-0.874,2.522,0.120991039231538,0.274979634617135,7.492445098858909,0.403,1.523,9.822,59,139,87,686,873,833,0.1,0.1,0.1,-2.9e-05,0.008429,0.003332,-0.004672,0.006085,0.691343,0.722485,10.75,10.953125,10.75,11.0,1.0052,1.0052,3881.42,364160,1,0,0,0,0,0,0,0,11.257957,10.863281,0.394676,0.42,106.44182503717417,29.49941558663776
1654,284393430,2272,1690354775.8600001,1,0,0,0.0,29.496819932725696,106.44581000434027,317.356,-4.741,10.211,0.359,0.094,-0.869,2.598,0.076994297692797,0.508962305527716,7.519443099348591,0.485,1.42,9.498,60,139,87,686,873,833,0.1,0.1,0.1,-2.9e-05,0.008429,0.003332,-0.004641,0.006055,0.690869,0.722939,10.75,10.953125,10.75,11.03125,1.0052,1.0052,3881.43,364161,1,0,0,0,0,0,0,0,11.257957,10.871094,0.386864,0.43,106.44182530891678,29.499415587148395
1655,284393440,2272,1690354775.88,1,0,0,0.0,29.496819932725696,106.44581000434027,317.358,-4.741,10.211,0.359,0.09,-0.867,2.672,-0.303977486994944,0.302977561050879,7.461447394592977,0.311,1.483,9.503,60,139,88,686,873,833,0.1,0.1,0.1,-2.9e-05,0.008429,0.003332,-0.004646,0.006014,0.690399,0.723388,10.75,10.953125,10.75,11.03125,1.0052,1.0052,3881.44,364162,1,0,0,0,0,0,0,0,11.257957,10.871094,0.386864,0.44,106.44182530891678,29.499415587148395
1656,284393450,2272,1690354775.9,1,0,0,0.0,29.496819932725696,106.44581515842015,317.359,-4.741,10.211,0.359,0.088,-0.865,2.747,-0.15498852132966,0.130990298672162,7.465447098369227,0.339,1.403,9.719,60,140,88,686,873,833,0.1,0.1,0.1,-2.9e-05,0.008429,0.003332,-0.004652,0.005994,0.689928,0.723838,10.75,11.0,10.75,11.015625,1.0052,1.0052,3881.45,364163,1,0,0,0,0,0,0,0,11.257957,10.878906,0.379051,0.45,106.44183047202708,29.499415596850994
1657,284393460,2272,1690354775.92,1,0,0,0.0,29.496820203993057,106.44581515842015,317.361,-4.741,10.211,0.359,0.089,-0.865,2.823,0.236982448742767,0.051996149091239,7.565439692775458,0.335,1.362,9.983,60,140,87,686,873,833,0.1,0.1,0.1,-2.9e-05,0.008429,0.003332,-0.004638,0.006002,0.689449,0.724293,10.75,11.0,10.75,11.015625,1.0052,1.0052,3881.46,364164,1,0,0,0,0,0,0,0,11.257957,10.878906,0.379051,0.46,106.44183047201047,29.499415868000913
1658,284393470,2272,1690354775.94,1,0,0,0.0,29.496820203993057,106.44581434461804,317.363,-4.076,10.594,0.271,0.095,-0.865,2.898,0.732945716997674,0.071994667972485,7.541441470117962,0.369,1.416,9.959,60,141,88,735,851,780,0.1,0.1,0.1,-2.9e-05,0.008429,0.003332,-0.004591,0.006039,0.688972,0.724747,10.765625,11.0,10.765625,11.0,1.0052,1.0052,3881.47,364165,1,0,0,0,0,0,0,0,11.351062,10.882812,0.46825,0.47,106.44182965678243,29.49941586646886
1659,284393480,2272,1690354775.96,1,0,0,0.0,29.496820203993057,106.44581434461804,317.364,-4.076,10.594,0.271,0.098,-0.867,2.974,0.413969340841796,-0.228983041190271,7.594437545153264,0.411,1.473,9.967,60,141,88,735,851,780,0.1,0.1,0.1,-2.9e-05,0.008429,0.003332,-0.004583,0.006075,0.688492,0.725203,10.765625,11.0,10.765625,11.0,1.0052,1.0052,3881.48,364166,1,0,0,0,0,0,0,0,11.351062,10.882812,0.46825,0.48,106.44182965678243,29.49941586646886
1660,284393490,2272,1690354775.98,1,0,0,0.0,29.496820203993057,106.44581949869792,317.366,-4.076,10.594,0.271,0.099,-0.863,3.049,0.218983781749645,0.378971932799615,7.483445765362347,0.375,1.495,9.783,60,142,88,735,851,780,0.1,0.1,0.1,-2.9e-05,0.008429,0.003332,-0.00455,0.006062,0.688018,0.725653,10.78125,11.0,10.78125,11.03125,1.0052,1.0052,3881.49,364167,1,0,0,0,0,0,0,0,11.351062,10.898438,0.452625,0.49,106.44183481989369,29.499415876172307
1661,284393500,2272,1690354776.0,1,0,0,0.0,29.496820203993057,106.44581976996528,317.367,-4.076,10.594,0.271,0.098,-0.861,3.124,0.035997333986242,0.253981189791826,7.574439026272017,0.256,1.468,9.723,60,142,88,735,851,780,0.1,0.1,0.1,-2.9e-05,0.008429,0.003332,-0.004537,0.006045,0.687539,0.726108,10.78125,11.0,10.78125,11.03125,1.0052,1.0052,3881.5,364168,1,0,0,0,0,0,0,0,11.351062,10.898438,0.452625,0.5,106.44183509163642,29.49941587668304
1662,284393510,2272,1690354776.02,1,0,0,0.0,29.496820203993057,106.44582004123264,317.369,-4.076,10.594,0.271,0.094,-0.861,3.2,-0.306977264827131,-0.006999481608438,7.605436730537949,0.311,1.422,10.015,60,142,88,735,851,780,0.1,0.1,0.1,-2.9e-05,0.008429,0.003332,-0.004561,0.006024,0.687057,0.726564,10.78125,11.0,10.78125,11.03125,1.0052,1.0052,3881.51,364169,1,0,0,0,0,0,0,0,11.351062,10.898438,0.452625,0.51,106.44183536337916,29.49941587719378
1663,284393520,2272,1690354776.04,1,0,0,0.0,29.496824544270837,106.44582004123264,317.371,-4.076,10.594,0.271,0.096,-0.854,3.276,0.347974228533683,0.705947716507991,7.572439174383893,0.457,1.459,9.863,60,143,88,735,851,780,0.1,0.1,0.1,-2.9e-05,0.008429,0.003332,-0.004501,0.005998,0.686577,0.727018,10.78125,11.0,10.78125,11.03125,1.0052,1.0052,3881.52,364170,1,0,0,0,0,0,0,0,11.351062,10.898438,0.452625,0.52,106.44183536311327,29.499420215592504
1664,284393530,2272,1690354776.06,1,0,0,0.0,29.496824544270837,106.44582004123264,317.372,-4.076,10.594,0.271,0.095,-0.849,3.351,-0.079994075524986,0.520961416856464,7.516443321516404,0.332,1.46,9.428,60,143,89,735,851,780,0.1,0.1,0.1,-2.9e-05,0.008429,0.003332,-0.004479,0.005957,0.6861,0.727468,10.78125,11.0,10.78125,11.03125,1.0052,1.0052,3881.53,364171,1,0,0,0,0,0,0,0,11.351062,10.898438,0.452625,0.53,106.44183536311327,29.499420215592504
1665,284393540,2272,1690354776.08,1,0,0,0.0,29.496824544270837,106.44582519531248,317.374,-4.076,10.594,0.271,0.097,-0.85,3.427,0.312976820491503,-0.073994519860613,7.53644184039765,0.256,1.43,9.674,60,144,89,735,851,780,0.1,0.1,0.1,-2.9e-05,0.008429,0.003332,-0.004468,0.005978,0.685621,0.727919,10.78125,11.0,10.78125,11.046875,1.0052,1.0052,3881.54,364172,1,0,0,0,0,0,0,0,11.351062,10.902344,0.448718,0.54,106.44184052622575,29.499420225297072
1666,284393550,2272,1690354776.1,1,0,0,0.0,29.496824544270837,106.44582519531248,317.376,-4.076,10.594,0.271,0.094,-0.853,3.502,-0.18098659587528,-0.224983337414022,7.497444728579219,0.285,1.505,10.073,60,144,89,735,851,780,0.1,0.1,0.1,-2.9e-05,0.008429,0.003332,-0.004497,0.005979,0.685145,0.728367,10.78125,11.0,10.78125,11.046875,1.0052,1.0052,3881.55,364173,1,0,0,0,0,0,0,0,11.351062,10.902344,0.448718,0.55,106.44184052622575,29.499420225297072
1667,284393560,2272,1690354776.12,1,0,0,0.0,29.496824815538197,106.44582438151042,317.377,-4.076,10.594,0.271,0.097,-0.859,3.578,0.478964527205846,-0.670950308465813,7.608436508370136,0.333,1.539,9.848,60,145,89,735,851,780,0.1,0.1,0.1,-2.9e-05,0.008429,0.003332,-0.00451,0.006047,0.684661,0.728822,10.78125,11.0,10.78125,11.046875,1.0052,1.0052,3881.56,364174,1,0,0,0,0,0,0,0,11.351062,10.902344,0.448718,0.56,106.4418397109808,29.499420494914624
1668,284393570,2272,1690354776.1399999,1,0,0,0.0,29.496824815538197,106.44582465277776,317.379,-3.687,10.678,0.282,0.094,-0.865,3.654,-0.227983115246209,-0.517961639024279,7.616435915922636,0.403,1.47,9.685,60,145,89,735,840,784,0.1,0.1,0.1,-2.9e-05,0.008429,0.003332,-0.00456,0.006064,0.684176,0.729276,10.78125,11.0,10.78125,11.046875,1.0052,1.0052,3881.57,364175,1,0,0,0,0,0,0,0,11.296621,10.902344,0.394278,0.57,106.44183998272356,29.49942049542541
1669,284393580,2272,1690354776.1599998,1,0,0,0.0,29.496824815538197,106.44582980685765,317.381,-3.687,10.678,0.282,0.094,-0.863,3.729,0.074994445804672,0.211984300141209,7.52344280312484,0.376,1.383,9.683,60,145,89,735,840,784,0.1,0.1,0.1,-2.9e-05,0.008429,0.003332,-0.004547,0.006052,0.683697,0.729726,10.78125,11.0,10.78125,11.046875,1.0052,1.0052,3881.58,364176,1,0,0,0,0,0,0,0,11.296621,10.902344,0.394278,0.58,106.44184514583709,29.49942050513088
1670,284393590,2272,1690354776.1799998,1,0,0,0.0,29.496824815538197,106.44582980685765,317.382,-3.687,10.678,0.282,0.092,-0.866,3.805,-0.017998666993123,-0.274979634617137,7.542441396062024,0.292,1.374,9.731,60,146,89,735,840,784,0.1,0.1,0.1,-2.9e-05,0.008429,0.003332,-0.004569,0.006065,0.683217,0.730175,10.796875,11.0,10.796875,11.046875,1.0052,1.0052,3881.59,364177,1,0,0,0,0,0,0,0,11.296621,10.910156,0.386465,0.59,106.44184514583709,29.49942050513088
1671,284393600,2272,1690354776.1999998,1,0,0,0.0,29.496825086805558,106.445830078125,317.384,-3.687,10.678,0.282,0.094,-0.871,3.881,0.325975857764313,-0.498963046087095,7.615435989978574,0.278,1.422,10.203,61,146,90,735,840,784,0.1,0.1,0.1,-2.9e-05,0.008429,0.003332,-0.004582,0.006114,0.682731,0.730629,10.796875,11.0,10.796875,11.046875,1.0052,1.0052,3881.6,364178,1,0,0,0,0,0,0,0,11.296621,10.910156,0.386465,0.6,106.44184541756331,29.49942077679164
1672,284393610,2272,1690354776.2199998,1,0,0,0.0,29.496825086805558,106.445830078125,317.386,-3.687,10.678,0.282,0.096,-0.868,3.957,0.313976746435565,0.297977931330568,7.616435915922636,0.276,1.621,9.821,60,147,89,735,840,784,0.1,0.1,0.1,-2.9e-05,0.008429,0.003332,-0.004548,0.006111,0.682246,0.731083,10.78125,11.0,10.78125,11.0625,1.0052,1.0052,3881.61,364179,1,0,0,0,0,0,0,0,11.296621,10.90625,0.390371,0.61,106.44184541756331,29.49942077679164
1673,284393620,2272,1690354776.2399998,1,0,0,0.0,29.496825086805558,106.445830078125,317.387,-3.687,10.678,0.282,0.097,-0.87,4.032,0.161988002938093,-0.169987410490595,7.560440063055146,0.378,1.49,9.837,60,147,89,735,840,784,0.1,0.1,0.1,-2.9e-05,0.008429,0.003332,-0.004552,0.006129,0.681763,0.731533,10.78125,11.0,10.78125,11.0625,1.0052,1.0052,3881.62,364180,1,0,0,0,0,0,0,0,11.296621,10.90625,0.390371,0.62,106.44184541756331,29.49942077679164
1674,284393630,2272,1690354776.2600002,1,0,0,0.0,29.496825086805558,106.44583523220484,317.389,-3.687,10.678,0.282,0.097,-0.868,4.108,0.111991705734978,0.221983559581832,7.595437471097326,0.322,1.428,9.616,61,148,90,735,840,784,0.1,0.1,0.1,-2.9e-05,0.008429,0.003332,-0.004536,0.006118,0.681278,0.731984,10.78125,11.0,10.78125,11.0625,1.0052,1.0052,3881.63,364181,1,0,0,0,0,0,0,0,11.296621,10.90625,0.390371,0.63,106.441850580678,29.499420786498177
1675,284393640,2272,1690354776.2800002,1,0,0,0.0,29.496825086805558,106.44583468967012,317.391,-3.687,10.678,0.282,0.104,-0.872,4.185,0.875935126998585,-0.41896897056211,7.626435175363258,0.313,1.371,9.466,61,148,90,735,840,784,0.1,0.1,0.1,-2.9e-05,0.008429,0.003332,-0.004509,0.006194,0.68079,0.732438,10.796875,11.03125,10.796875,11.0625,1.0052,1.0052,3881.64,364182,1,0,0,0,0,0,0,0,11.296621,10.921875,0.374746,0.64,106.44185003719218,29.49942078547639
1676,284393650,2272,1690354776.3000002,1,0,0,0.0,29.49682535807292,106.44583468967012,317.392,-3.687,10.678,0.282,0.104,-0.881,4.261,0.032997556154055,-0.823938977907347,7.642433990468256,0.228,1.407,10.004,61,149,90,735,840,784,0.1,0.1,0.1,-2.9e-05,0.008429,0.003332,-0.004561,0.006246,0.680301,0.732891,10.796875,11.03125,10.796875,11.0625,1.0052,1.0052,3881.65,364183,1,0,0,0,0,0,0,0,11.296621,10.921875,0.374746,0.65,106.44185003717556,29.499421056626307
1677,284393660,2272,1690354776.3200002,1,0,0,0.0,29.49682535807292,106.44583468967012,317.394,-3.687,10.678,0.282,0.11,-0.879,4.338,0.802940533082036,0.156988373217782,7.686430732006998,0.361,1.465,9.738,61,149,90,735,840,784,0.1,0.1,0.1,-2.9e-05,0.008429,0.003332,-0.004504,0.006281,0.679809,0.733348,10.8125,11.03125,10.8125,11.046875,1.0052,1.0052,3881.66,364184,1,0,0,0,0,0,0,0,11.296621,10.925781,0.37084,0.66,106.44185003717556,29.499421056626307
1678,284393670,2272,1690354776.3400002,1,0,0,0.0,29.49682535807292,106.44583984375,317.396,-3.742,10.153,0.149,0.114,-0.882,4.414,0.504962601751467,-0.296978005386508,7.588437989488891,0.362,1.53,9.673,61,149,90,664,752,835,0.1,0.1,0.1,-2.9e-05,0.008429,0.003332,-0.004494,0.006327,0.679323,0.733797,10.8125,11.03125,10.8125,11.046875,1.0052,1.0052,3881.67,364185,1,0,0,0,0,0,0,0,10.820627,10.925781,0.105154,0.67,106.44185520029127,29.499421066333746
1679,284393680,2272,1690354776.3600001,1,0,0,0.0,29.496824544270837,106.44583984375,317.397,-3.742,10.153,0.149,0.113,-0.89,4.49,0.028997852377806,-0.705947716507994,7.63143480508357,0.293,1.505,9.424,61,150,90,664,752,835,0.1,0.1,0.1,-2.9e-05,0.008429,0.003332,-0.004538,0.006371,0.678834,0.734249,10.828125,11.046875,10.828125,11.046875,1.0052,1.0052,3881.68,364186,1,0,0,0,0,0,0,0,10.820627,10.9375,0.116873,0.68,106.44185520034112,29.499420252883983
1680,284393690,2272,1690354776.38,1,0,0,0.0,29.496824544270837,106.44584038628471,317.399,-3.742,10.153,0.149,0.115,-0.902,4.568,0.258980819512138,-1.242907948469456,7.747426214594798,0.287,1.438,9.821,61,150,91,664,752,835,0.1,0.1,0.1,-2.9e-05,0.008429,0.003332,-0.0046,0.006463,0.678337,0.734707,10.828125,11.046875,10.828125,11.046875,1.0052,1.0052,3881.69,364187,1,0,0,0,0,0,0,0,10.820627,10.9375,0.116873,0.69,106.44185574382705,29.49942025390588
1681,284393700,2272,1690354776.4,1,0,0,0.0,29.496824544270837,106.44583930121529,317.4,-3.742,10.153,0.149,0.111,-0.908,4.644,-0.210984374197149,-0.519961490912404,7.694430139559495,0.373,1.366,9.895,61,151,91,664,752,835,0.1,0.1,0.1,-2.9e-05,0.008429,0.003332,-0.004649,0.006481,0.677843,0.735162,10.828125,11.046875,10.828125,11.046875,1.0052,1.0052,3881.7,364188,1,0,0,0,0,0,0,0,10.820627,10.9375,0.116873,0.7,106.44185465685523,29.4994202518621
1682,284393710,2272,1690354776.42,1,0,0,0.0,29.496824544270837,106.44584445529514,317.402,-3.742,10.153,0.149,0.115,-0.906,4.722,0.519961490912401,0.200985114756524,7.745426362706673,0.237,1.399,9.549,61,151,90,664,752,835,0.1,0.1,0.1,-2.9e-05,0.008429,0.003332,-0.004608,0.006496,0.677346,0.73562,10.8125,11.046875,10.8125,11.078125,1.0052,1.0052,3881.71,364189,1,0,0,0,0,0,0,0,10.820627,10.9375,0.116873,0.71,106.44185981997194,29.499420261570442
1683,284393720,2272,1690354776.44,1,0,0,0.0,29.496824815538197,106.44584445529514,317.404,-3.742,10.153,0.149,0.119,-0.912,4.798,0.464965563988974,-0.636952826367695,7.646433694244504,0.298,1.487,9.664,61,152,91,664,752,835,0.1,0.1,0.1,-2.9e-05,0.008429,0.003332,-0.00462,0.006562,0.676855,0.736072,10.8125,11.046875,10.8125,11.078125,1.0052,1.0052,3881.72,364190,1,0,0,0,0,0,0,0,10.820627,10.9375,0.116873,0.72,106.44185981995531,29.499420532720364
1684,284393730,2272,1690354776.46,1,0,0,0.0,29.496824815538197,106.44584445529514,317.405,-3.742,10.153,0.149,0.121,-0.921,4.878,0.374972229023366,-0.829938533571721,7.922413254805702,0.311,1.664,9.942,61,152,91,664,752,835,0.1,0.1,0.1,-2.9e-05,0.008429,0.003332,-0.00465,0.006634,0.676346,0.736539,10.828125,11.03125,10.828125,11.078125,1.0052,1.0052,3881.73,364191,1,0,0,0,0,0,0,0,10.820627,10.941406,0.120779,0.73,106.44185981995531,29.499420532720364
1685,284393740,2272,1690354776.48,1,0,0,0.0,29.496824815538197,106.44584499782987,317.407,-3.742,10.153,0.149,0.119,-0.928,4.956,-0.08599363118936,-0.677949790074249,7.823420586343533,0.313,1.636,9.847,61,152,91,664,752,835,0.1,0.1,0.1,-2.9e-05,0.008429,0.003332,-0.0047,0.00667,0.675842,0.737,10.828125,11.03125,10.828125,11.078125,1.0052,1.0052,3881.74,364192,1,0,0,0,0,0,0,0,10.820627,10.941406,0.120779,0.74,106.44186036344135,29.499420533742352
1686,284393750,2272,1690354776.5,1,0,0,0.0,29.496825086805558,106.44584499782987,317.408,-3.742,10.153,0.149,0.114,-0.934,5.033,-0.432967933778983,-0.558958602730834,7.773424289140418,0.381,1.548,9.947,61,153,91,664,752,835,0.1,0.1,0.1,-2.9e-05,0.008429,0.003332,-0.004766,0.006677,0.675342,0.737458,10.828125,11.03125,10.828125,11.078125,1.0052,1.0052,3881.75,364193,1,0,0,0,0,0,0,0,10.820627,10.941406,0.120779,0.75,106.44186036342474,29.49942080489227
1687,284393760,2272,1690354776.52,1,0,0,0.0,29.496825086805558,106.44585015190972,317.41,-3.742,10.153,0.149,0.108,-0.937,5.111,-0.476964675317725,-0.292978301610259,7.795422659909788,0.343,1.391,9.796,61,153,91,664,752,835,0.1,0.1,0.1,-2.9e-05,0.008429,0.003332,-0.004818,0.006665,0.674841,0.737917,10.828125,11.046875,10.828125,11.09375,1.0052,1.0052,3881.76,364194,1,0,0,0,0,0,0,0,10.820627,10.949219,0.128592,0.76,106.44186552654268,29.49942081460173
1688,284393770,2272,1690354776.54,1,0,0,0.0,29.496825086805558,106.44585015190972,317.412,-4.006,10.758,0.036,0.11,-0.939,5.19,0.334975191260873,-0.216983929861523,7.821420734455409,0.306,1.428,9.631,61,154,91,658,743,837,0.1,0.1,0.1,-2.9e-05,0.008429,0.003332,-0.004814,0.006695,0.674337,0.738377,10.828125,11.046875,10.828125,11.09375,1.0052,1.0052,3881.77,364195,1,0,0,0,0,0,0,0,11.47966,10.949219,0.530442,0.77,106.44186552654268,29.49942081460173
1689,284393780,2272,1690354776.56,1,0,0,0.0,29.496825086805558,106.44584933810764,317.413,-4.006,10.758,0.036,0.105,-0.943,5.268,-0.290978449722134,-0.419968896506173,7.879416439211024,0.192,1.591,9.929,61,154,92,658,743,837,0.1,0.1,0.1,-2.9e-05,0.008429,0.003332,-0.004863,0.006702,0.673829,0.73884,10.828125,11.046875,10.828125,11.09375,1.0052,1.0052,3881.78,364196,1,0,0,0,0,0,0,0,11.47966,10.949219,0.530442,0.78,106.44186471131346,29.49942081306859
1690,284393790,2272,1690354776.58,1,0,0,0.0,29.496824544270837,106.44584933810764,317.415,-4.006,10.758,0.036,0.106,-0.945,5.348,0.221983559581832,-0.170987336434657,7.940411921798824,0.402,1.666,9.657,61,155,92,658,743,837,0.1,0.1,0.1,-2.9e-05,0.008429,0.003332,-0.004863,0.006723,0.673317,0.739307,10.8125,11.046875,10.8125,11.09375,1.0052,1.0052,3881.79,364197,1,0,0,0,0,0,0,0,11.47966,10.941406,0.538254,0.79,106.4418647113467,29.49942027076875
1691,284393800,2272,1690354776.6,1,0,0,0.0,29.496824544270837,106.44585449218748,317.417,-4.006,10.758,0.036,0.101,-0.956,5.427,-0.378971932799618,-1.021924314831685,7.893415402427896,0.342,1.71,10.123,62,155,92,658,743,837,0.1,0.1,0.1,-2.9e-05,0.008429,0.003332,-0.004953,0.006764,0.672807,0.73977,10.8125,11.046875,10.8125,11.09375,1.0052,1.0052,3881.8,364198,1,0,0,0,0,0,0,0,11.47966,10.941406,0.538254,0.8,106.44186987446558,29.499420280479058
1692,284393810,2272,1690354776.62,1,0,0,0.0,29.496824815538197,106.44585476345486,317.418,-4.006,10.758,0.036,0.096,-0.97,5.506,-0.367972747414933,-1.376898024973806,7.930412662358202,0.417,1.33,10.023,61,155,92,658,743,837,0.1,0.1,0.1,-2.9e-05,0.008429,0.003332,-0.005062,0.006828,0.672295,0.740234,10.84375,11.046875,10.84375,11.09375,1.0052,1.0052,3881.81,364199,1,0,0,0,0,0,0,0,11.47966,10.957031,0.522629,0.81,106.44187014619212,29.499420552140073
1693,284393820,2272,1690354776.6399999,1,0,0,0.0,29.496824815538197,106.44585476345486,317.42,-4.006,10.758,0.036,0.1,-0.98,5.586,0.466965415877099,-1.032923500216371,8.022405849211934,0.329,1.281,10.122,61,156,92,658,743,837,0.1,0.1,0.1,-2.9e-05,0.008429,0.003332,-0.005097,0.006919,0.671776,0.740704,10.84375,11.046875,10.84375,11.09375,1.0052,1.0052,3881.82,364200,1,0,0,0,0,0,0,0,11.47966,10.957031,0.522629,0.82,106.44187014619212,29.499420552140073
1694,284393830,2272,1690354776.6599998,1,0,0,0.0,29.496824815538197,106.44585503472221,317.422,-4.006,10.758,0.036,0.103,-0.985,5.666,0.524961120632713,-0.444967045107731,8.02540562704412,0.293,1.619,10.046,62,156,92,658,743,837,0.1,0.1,0.1,-2.9e-05,0.008429,0.003332,-0.005094,0.006975,0.671256,0.741174,10.84375,11.046875,10.84375,11.09375,1.0052,1.0052,3881.83,364201,1,0,0,0,0,0,0,0,11.47966,10.957031,0.522629,0.83,106.44187041793523,29.499420552651173
1695,284393840,2272,1690354776.6799998,1,0,0,0.0,29.496825086805558,106.44585503472221,317.423,-4.006,10.758,0.036,0.099,-0.983,5.747,-0.328975635596502,0.158988225105906,8.005407108162876,0.252,1.674,10.194,62,157,92,658,743,837,0.1,0.1,0.1,-2.9e-05,0.008429,0.003332,-0.005111,0.006942,0.670739,0.741643,10.8125,11.0625,10.8125,11.09375,1.0052,1.0052,3881.84,364202,1,0,0,0,0,0,0,0,11.47966,10.945312,0.534348,0.84,106.44187041791862,29.499420823801096
1696,284393850,2272,1690354776.6999998,1,0,0,0.0,29.496824815538197,106.44586018880209,317.425,-4.006,10.758,0.036,0.093,-0.971,5.827,-0.468965267765226,1.227909059308519,8.02540562704412,0.42,1.628,9.834,62,157,93,658,743,837,0.1,0.1,0.1,-2.9e-05,0.008429,0.003332,-0.005075,0.006831,0.67022,0.742113,10.8125,11.0625,10.8125,11.09375,1.0052,1.0052,3881.85,364203,1,0,0,0,0,0,0,0,11.47966,10.945312,0.534348,0.85,106.44187558105541,29.499420562362598
1697,284393860,2272,1690354776.7199998,1,0,0,0.0,29.496824815538197,106.44586018880209,317.427,-4.006,10.758,0.036,0.091,-0.97,5.907,-0.022998296713435,0.135989928392473,8.061402961030364,0.366,1.501,9.807,62,158,92,658,743,837,0.1,0.1,0.1,-2.9e-05,0.008429,0.003332,-0.005073,0.006818,0.669698,0.742584,10.8125,11.0625,10.8125,11.09375,1.0052,1.0052,3881.86,364204,1,0,0,0,0,0,0,0,11.47966,10.945312,0.534348,0.86,106.44187558105541,29.499420562362598
1698,284393870,2272,1690354776.7399998,1,0,0,0.0,29.496825086805558,106.445859375,317.429,-3.974,10.812,-0.07,0.091,-0.983,5.988,0.165987706714343,-1.299903727281008,8.053403553477866,0.326,1.329,10.502,62,158,93,663,742,842,0.1,0.1,0.1,-2.9e-05,0.008429,0.003332,-0.005144,0.006909,0.669175,0.743054,10.84375,11.09375,10.84375,11.078125,1.0052,1.0052,3881.87,364205,1,0,0,0,0,0,0,0,11.519202,10.964844,0.554358,0.87,106.44187476580922,29.49942083197907
1699,284393880,2272,1690354776.7600002,1,0,0,0.0,29.496825086805558,106.44585964626737,317.431,-3.974,10.812,-0.07,0.101,-0.98,6.069,1.05992150070605,0.309977042659316,8.146396666275662,0.239,1.487,10.478,62,159,93,663,742,842,0.1,0.1,0.1,-2.9e-05,0.008429,0.003332,-0.005062,0.006947,0.668646,0.74353,10.84375,11.09375,10.84375,11.078125,1.0052,1.0052,3881.88,364206,1,0,0,0,0,0,0,0,11.519202,10.964844,0.554358,0.88,106.4418750375524,29.499420832490216
1700,284393890,2272,1690354776.7800002,1,0,0,0.0,29.496824544270837,106.44586480034722,317.432,-3.974,10.812,-0.07,0.104,-0.971,6.15,0.474964823429597,0.962928684132006,8.092400665296296,0.217,1.533,9.975,62,159,93,663,742,842,0.1,0.1,0.1,-2.9e-05,0.008429,0.003332,-0.00498,0.006909,0.668122,0.744003,10.828125,11.0625,10.828125,11.109375,1.0052,1.0052,3881.89,364207,1,0,0,0,0,0,0,0,11.519202,10.957031,0.562171,0.89,106.4418802007068,29.499420299902702
1701,284393900,2272,1690354776.8000002,1,0,0,0.0,29.496824544270837,106.44586480034722,317.434,-3.974,10.812,-0.07,0.108,-0.958,6.232,0.516961713080214,1.278905282455697,8.210391926695648,0.274,1.536,9.647,62,159,93,663,742,842,0.1,0.1,0.1,-2.9e-05,0.008429,0.003332,-0.004877,0.006853,0.667589,0.744482,10.828125,11.0625,10.828125,11.109375,1.0052,1.0052,3881.9,364208,1,0,0,0,0,0,0,0,11.519202,10.957031,0.562171,0.9,106.4418802007068,29.499420299902702
1702,284393910,2272,1690354776.8200002,1,0,0,0.0,29.496824544270837,106.44586480034722,317.436,-3.974,10.812,-0.07,0.11,-0.952,6.314,0.333975265316811,0.656951345248938,8.140397110611287,0.273,1.554,10.009,62,160,93,663,742,842,0.1,0.1,0.1,-2.9e-05,0.008429,0.003332,-0.004822,0.006826,0.66706,0.744957,10.84375,11.0625,10.84375,11.109375,1.0052,1.0052,3881.91,364209,1,0,0,0,0,0,0,0,11.519202,10.964844,0.554358,0.91,106.4418802007068,29.499420299902702
1703,284393920,2272,1690354776.8400002,1,0,0,0.0,29.496824815538197,106.44586507161456,317.438,-3.974,10.812,-0.07,0.113,-0.95,6.396,0.491963564478657,0.23398267091058,8.205392296975338,0.328,1.435,10.211,62,160,93,663,742,842,0.1,0.1,0.1,-2.9e-05,0.008429,0.003332,-0.004782,0.006836,0.666526,0.745434,10.84375,11.0625,10.84375,11.109375,1.0052,1.0052,3881.92,364210,1,0,0,0,0,0,0,0,11.519202,10.964844,0.554358,0.92,106.44188047243341,29.499420571563824
1704,284393930,2272,1690354776.8600001,1,0,0,0.0,29.496824815538197,106.44586507161456,317.44,-3.974,10.812,-0.07,0.122,-0.941,6.478,1.058921574761988,0.840937718956404,8.246389260681893,0.208,1.456,9.949,62,161,93,663,742,842,0.1,0.1,0.1,-2.9e-05,0.008429,0.003332,-0.004669,0.00684,0.665989,0.745914,10.84375,11.0625,10.84375,11.109375,1.0052,1.0052,3881.93,364211,1,0,0,0,0,0,0,0,11.519202,10.964844,0.554358,0.93,106.44188047243341,29.499420571563824
1705,284393940,2272,1690354776.88,1,0,0,0.0,29.496824815538197,106.44586941189236,317.442,-3.974,10.812,-0.07,0.132,-0.929,6.561,1.036923203992617,1.316902468330065,8.259388297954702,0.124,1.574,9.648,62,161,94,663,742,842,0.1,0.1,0.1,-2.9e-05,0.008429,0.003332,-0.00453,0.006811,0.665451,0.746396,10.828125,11.0625,10.828125,11.109375,1.0052,1.0052,3881.94,364212,1,0,0,0,0,0,0,0,11.519202,10.957031,0.562171,0.94,106.44188482032585,29.499420579743454
1706,284393950,2272,1690354776.9,1,0,0,0.0,29.496825086805558,106.44586941189236,317.444,-3.974,10.812,-0.07,0.137,-0.917,6.644,0.663950826857374,1.215909947979771,8.297385483829071,0.168,1.421,9.601,62,162,94,663,742,842,0.1,0.1,0.1,-2.9e-05,0.008429,0.003332,-0.004421,0.006767,0.664911,0.746878,10.828125,11.0625,10.828125,11.109375,1.0052,1.0052,3881.95,364213,1,0,0,0,0,0,0,0,11.519202,10.957031,0.562171,0.95,106.44188482030924,29.499420850893376
1707,284393960,2272,1690354776.92,1,0,0,0.0,29.496825086805558,106.44586968315971,317.446,-3.974,10.812,-0.07,0.151,-0.906,6.728,1.561884324625331,1.118917131405727,8.436375190053731,0.206,1.55,9.642,62,162,93,663,742,842,0.1,0.1,0.1,-2.9e-05,0.008429,0.003332,-0.00426,0.006782,0.664361,0.747369,10.828125,11.0625,10.828125,11.109375,1.0052,1.0052,3881.96,364214,1,0,0,0,0,0,0,0,11.519202,10.957031,0.562171,0.96,106.44188509205254,29.499420851404626
1708,284393970,2272,1690354776.94,1,0,0,0.0,29.49682535807292,106.44586968315971,317.448,-3.528,10.172,-0.207,0.161,-0.907,6.811,1.126916538958225,-0.075994371748737,8.308384669213755,0.243,1.511,10.078,62,162,94,662,740,840,0.1,0.1,0.1,-2.9e-05,0.008429,0.003332,-0.004196,0.006849,0.663818,0.74785,10.84375,11.0625,10.84375,11.09375,1.0052,1.0052,3881.97,364215,1,0,0,0,0,0,0,0,10.766446,10.960938,0.194491,0.97,106.44188509203592,29.499421122554548
1709,284393980,2272,1690354776.96,1,0,0,0.0,29.49682535807292,106.44587483723959,317.45,-3.528,10.172,-0.207,0.171,-0.905,6.895,1.156914317280095,0.157988299161844,8.393378374459052,0.133,1.434,10.121,62,163,94,662,740,840,0.1,0.1,0.1,-2.9e-05,0.008429,0.003332,-0.004117,0.006903,0.663269,0.748337,10.84375,11.0625,10.84375,11.09375,1.0052,1.0052,3881.98,364216,1,0,0,0,0,0,0,0,10.766446,10.960938,0.194491,0.98,106.4418902551593,29.49942113226884
1710,284393990,2272,1690354776.98,1,0,0,0.0,29.496824544270837,106.44587510850693,317.452,-3.528,10.172,-0.207,0.185,-0.893,6.98,1.488889730708782,1.272905726791323,8.49137111697716,0.061,1.604,9.683,62,163,94,662,740,840,0.1,0.1,0.1,-2.9e-05,0.008429,0.003332,-0.003951,0.006904,0.662714,0.748829,10.828125,11.0625,10.828125,11.109375,1.0052,1.0052,3881.99,364217,1,0,0,0,0,0,0,0,10.766446,10.957031,0.190585,0.99,106.44189052695249,29.499420319330387
1711,284394000,2272,1690354776.0,1,0,0,0.0,29.496824544270837,106.44587510850693,317.454,-3.528,10.172,-0.207,0.19,-0.882,7.066,0.630953270703318,1.104918168188854,8.557366229285272,0.143,1.541,9.326,63,164,94,662,740,840,0.1,0.1,0.1,-2.9e-05,0.008429,0.003332,-0.003852,0.006865,0.662155,0.749325,10.828125,11.0625,10.828125,11.109375,1.0052,1.0052,3881.99,364218,1,0,0,0,0,0,0,0,10.766446,10.957031,0.190585,0.0,106.44189052695249,29.499420319330387
1712,284394010,2272,1690354776.02,1,0,0,0.0,29.496824544270837,106.44587429470486,317.456,-3.528,10.172,-0.207,0.2,-0.873,7.152,1.152914613503845,1.00792535161481,8.608362452432448,0.123,1.525,9.525,62,164,94,662,740,840,0.1,0.1,0.1,-2.9e-05,0.008429,0.003332,-0.003724,0.006863,0.661592,0.749823,10.828125,11.0625,10.828125,11.109375,1.0052,1.0052,3882.0,364219,1,0,0,0,0,0,0,0,10.766446,10.957031,0.190585,0.01,106.44188971172242,29.499420317796474
1713,284394020,2272,1690354776.04,1,0,0,0.0,29.496824815538197,106.44587944878472,317.458,-3.528,10.172,-0.207,0.21,-0.868,7.238,1.117917205461664,0.481964305038033,8.625361193481508,0.112,1.748,9.739,62,165,94,662,740,840,0.1,0.1,0.1,-2.9e-05,0.008429,0.003332,-0.003628,0.006893,0.661027,0.750321,10.84375,11.0625,10.84375,11.109375,1.0052,1.0052,3882.01,364220,1,0,0,0,0,0,0,0,10.766446,10.964844,0.198397,0.02,106.44189487483017,29.499420598661594
1714,284394030,2272,1690354776.06,1,0,0,0.0,29.496824815538197,106.44587944878472,317.46,-3.528,10.172,-0.207,0.217,-0.874,7.324,0.838937867068279,-0.516961713080217,8.619361637817136,-0.005,1.901,10.038,63,165,95,662,740,840,0.1,0.1,0.1,-2.9e-05,0.008429,0.003332,-0.003609,0.006973,0.660462,0.750818,10.84375,11.0625,10.84375,11.109375,1.0052,1.0052,3882.02,364221,1,0,0,0,0,0,0,0,10.766446,10.964844,0.198397,0.03,106.44189487483017,29.499420598661594
1715,284394040,2272,1690354776.08,1,0,0,0.0,29.496825086805558,106.44587944878472,317.462,-3.528,10.172,-0.207,0.216,-0.874,7.411,0.022998296713432,0.040996963706553,8.700355639286181,-0.028,1.625,9.679,63,166,95,662,740,840,0.1,0.1,0.1,-2.9e-05,0.008429,0.003332,-0.00361,0.006969,0.659892,0.751319,10.84375,11.0625,10.84375,11.109375,1.0052,1.0052,3882.03,364222,1,0,0,0,0,0,0,0,10.766446,10.964844,0.198397,0.04,106.44189487481356,29.499420869811512
1716,284394050,2272,1690354776.1,1,0,0,0.0,29.496825086805558,106.44587999131944,317.464,-3.528,10.172,-0.207,0.212,-0.876,7.499,-0.202984966644651,-0.226983189302146,8.726353713831802,0.044,1.711,10.023,63,166,95,662,740,840,0.1,0.1,0.1,-2.9e-05,0.008429,0.003332,-0.003642,0.00697,0.659319,0.751821,10.828125,11.109375,10.828125,11.078125,1.0052,1.0052,3882.04,364223,1,0,0,0,0,0,0,0,10.766446,10.960938,0.194491,0.05,106.44189541830039,29.499420870834225
1717,284394060,2272,1690354776.12,1,0,0,0.0,29.49682535807292,106.44587999131944,317.466,-3.528,10.172,-0.207,0.204,-0.877,7.587,-0.732945716997677,-0.058995630699678,8.847344753063341,0.283,1.643,9.802,63,166,95,662,740,840,0.1,0.1,0.1,-2.9e-05,0.008429,0.003332,-0.0037,0.006929,0.658739,0.752329,10.828125,11.109375,10.828125,11.078125,1.0052,1.0052,3882.05,364224,1,0,0,0,0,0,0,0,10.766446,10.960938,0.194491,0.06,106.44189541828378,29.499421141984143
1718,284394070,2272,1690354776.1399999,1,0,0,0.0,29.49682535807292,106.4458851453993,317.468,-4.166,10.072,-0.241,0.203,-0.875,7.675,0.025998074545619,0.244981856295265,8.783349492643355,0.244,1.791,9.44,63,167,95,652,714,716,0.1,0.1,0.1,-2.9e-05,0.008429,0.003332,-0.00369,0.006912,0.658163,0.752834,10.84375,11.125,10.84375,11.09375,1.0052,1.0052,3882.06,364225,1,0,0,0,0,0,0,0,10.899575,10.976562,0.076987,0.07,106.44190058140939,29.499421151700457
1719,284394080,2272,1690354776.1599998,1,0,0,0.0,29.49682969835069,106.4458851453993,317.47,-4.166,10.072,-0.241,0.198,-0.886,7.764,-0.351973932309936,-1.04992224126543,8.947337347469572,0.185,2.001,10.062,63,167,95,652,714,716,0.1,0.1,0.1,-2.9e-05,0.008429,0.003332,-0.003779,0.006958,0.657575,0.753347,10.84375,11.125,10.84375,11.09375,1.0052,1.0052,3882.07,364226,1,0,0,0,0,0,0,0,10.899575,10.976562,0.076987,0.08,106.44190058114351,29.499425490099203
1720,284394090,2272,1690354776.1799998,1,0,0,0.0,29.49682969835069,106.44588433159721,317.471,-4.166,10.072,-0.241,0.181,-0.888,7.852,-1.486889878820661,-0.203984892588713,8.757351418097734,0.127,1.815,10.057,63,168,95,652,714,716,0.1,0.1,0.1,-2.9e-05,0.008429,0.003332,-0.003894,0.006883,0.657,0.753849,10.859375,11.078125,10.859375,11.109375,1.0052,1.0052,3882.08,364227,1,0,0,0,0,0,0,0,10.899575,10.976562,0.076987,0.09,106.44189976591306,29.499425488564977
1721,284394100,2272,1690354776.1999998,1,0,0,0.0,29.49682996961805,106.44588433159721,317.473,-4.166,10.072,-0.241,0.172,-0.876,7.939,-0.835938089236095,1.252907207910076,8.724353861943676,0.019,1.843,9.449,63,168,96,652,714,716,0.1,0.1,0.1,-2.9e-05,0.008429,0.003332,-0.003882,0.00675,0.656427,0.754349,10.859375,11.078125,10.859375,11.109375,1.0052,1.0052,3882.09,364228,1,0,0,0,0,0,0,0,10.899575,10.976562,0.076987,0.1,106.44189976589645,29.4994257597149
1722,284394110,2272,1690354776.2199998,1,0,0,0.0,29.49682996961805,106.44588948567709,317.475,-4.166,10.072,-0.241,0.155,-0.869,8.026,-1.583882695394705,0.690948827347057,8.717354380335243,0.125,1.716,9.435,63,169,95,652,714,716,0.1,0.1,0.1,-2.9e-05,0.008429,0.003332,-0.003953,0.006611,0.655854,0.754848,10.8125,11.0625,10.8125,11.140625,1.0052,1.0052,3882.1,364229,1,0,0,0,0,0,0,0,10.899575,10.957031,0.057456,0.11,106.44190492902302,29.499425769432065
1723,284394120,2272,1690354776.2399998,1,0,0,0.0,29.496830240885416,106.44588948567709,317.477,-4.166,10.072,-0.241,0.143,-0.866,8.113,-1.02392416671981,0.389971118184301,8.691356305789622,0.249,1.82,9.457,63,169,95,652,714,716,0.1,0.1,0.1,-2.9e-05,0.008429,0.003332,-0.004003,0.006524,0.655282,0.755345,10.8125,11.0625,10.8125,11.140625,1.0052,1.0052,3882.11,364230,1,0,0,0,0,0,0,0,10.899575,10.957031,0.057456,0.12,106.44190492900641,29.49942604058199
1724,284394130,2272,1690354776.2600002,1,0,0,0.0,29.496830240885416,106.44588975694444,317.479,-4.166,10.072,-0.241,0.141,-0.867,8.2,-0.095992890629983,-0.126990594895915,8.68235697229306,0.115,1.864,9.402,63,170,96,652,714,716,0.1,0.1,0.1,-2.9e-05,0.008429,0.003332,-0.004022,0.006524,0.65471,0.755841,10.828125,11.09375,10.828125,11.125,1.0052,1.0052,3882.12,364231,1,0,0,0,0,0,0,0,10.899575,10.96875,0.069175,0.13,106.44190520074993,29.499426041093447
1725,284394140,2272,1690354776.2800002,1,0,0,0.0,29.49682942708333,106.4458900282118,317.481,-4.166,10.072,-0.241,0.131,-0.874,8.287,-0.860936237837653,-0.632953122591445,8.679357194460874,0.098,1.832,9.644,63,170,96,652,714,716,0.1,0.1,0.1,-2.9e-05,0.008429,0.003332,-0.00412,0.006514,0.654137,0.756336,10.828125,11.09375,10.828125,11.125,1.0052,1.0052,3882.13,364232,1,0,0,0,0,0,0,0,10.899575,10.96875,0.069175,0.14,106.44190547254333,29.49942522815514
